{"type":"FeatureCollection","features":[{"type":"Feature","id":"plnHVbJR6p4","geometry":{"type":"Point","coordinates":[-12.9487,9.0131]},"properties":{"code":"OU_211234","name":"Ahamadyya Mission Cl","level":"4","parent":"QywkxFudXrC","parentGraph":"ImspTQPwCqd/PMa2VCrupOd/QywkxFudXrC","groups":["GGghZsfu7qV","oRVt7g429ZO"]}},{"type":"Feature","id":"BV4IomHvri4","geometry":{"type":"Point","coordinates":[-12.2231,8.466]},"properties":{"code":"OU_268246","name":"Ahmadiyya Muslim Hospital","level":"4","parent":"NNE0YMCDZkO","parentGraph":"ImspTQPwCqd/eIQbndfxQMb/NNE0YMCDZkO","groups":["f25dqv3Y7Z0","tDZVQ1WtwpA","oRVt7g429ZO"]}},{"type":"Feature","id":"qjboFI0irVu","geometry":{"type":"Point","coordinates":[-13.2027,8.6154]},"properties":{"code":"OU_255017","name":"Air Port Centre, Lungi","level":"4","parent":"vn9KJsLyP5f","parentGraph":"ImspTQPwCqd/TEQlaapDQoK/vn9KJsLyP5f","groups":["f25dqv3Y7Z0","oRVt7g429ZO"]}},{"type":"Feature","id":"kbGqmM6ZWWV","geometry":{"type":"Point","coordinates":[-13.155,8.4176]},"properties":{"code":"OU_278337","name":"Allen Town Health Post","level":"4","parent":"C9uduqDZr9d","parentGraph":"ImspTQPwCqd/at6UHUQatSo/C9uduqDZr9d","groups":["f25dqv3Y7Z0","oRVt7g429ZO"]}},{"type":"Feature","id":"eoYV2p74eVz","geometry":{"type":"Point","coordinates":[-13.178,8.4613]},"properties":{"code":"OU_278314","name":"Approved School CHP","level":"4","parent":"C9uduqDZr9d","parentGraph":"ImspTQPwCqd/at6UHUQatSo/C9uduqDZr9d","groups":["uYxK4wmcPqA","f25dqv3Y7Z0","oRVt7g429ZO"]}},{"type":"Feature","id":"nq7F0t1Pz6t","geometry":{"type":"Point","coordinates":[-13.221,8.4832]},"properties":{"code":"OU_233378","name":"Arab Clinic","level":"4","parent":"TQkG0sX9nca","parentGraph":"ImspTQPwCqd/Vth0fbpFcsO/TQkG0sX9nca","groups":["f25dqv3Y7Z0","RXL3lPSK8oG","oRVt7g429ZO"]}},{"type":"Feature","id":"r5WWF9WDzoa","geometry":{"type":"Point","coordinates":[-11.3329,8.3588]},"properties":{"code":"OU_222681","name":"Baama CHC","level":"4","parent":"X7dWcGerQIm","parentGraph":"ImspTQPwCqd/kJq2mPyFEHo/X7dWcGerQIm","groups":["f25dqv3Y7Z0","oRVt7g429ZO","CXw2yu5fodb"]}},{"type":"Feature","id":"yMCshbaVExv","geometry":{"type":"Point","coordinates":[-13.1317,8.8295]},"properties":{"code":"OU_254991","name":"Babara CHC","level":"4","parent":"fRLX08WHWpL","parentGraph":"ImspTQPwCqd/TEQlaapDQoK/fRLX08WHWpL","groups":["f25dqv3Y7Z0","oRVt7g429ZO","CXw2yu5fodb"]}},{"type":"Feature","id":"Jiymtq0A01x","geometry":{"type":"Point","coordinates":[-11.732,9.6835]},"properties":{"code":"OU_226243","name":"Bafodia CHC","level":"4","parent":"XrF5AvaGcuw","parentGraph":"ImspTQPwCqd/qhqAxPSTUXp/XrF5AvaGcuw","groups":["f25dqv3Y7Z0","oRVt7g429ZO","CXw2yu5fodb"]}},{"type":"Feature","id":"XtuhRhmbrJM","geometry":{"type":"Point","coordinates":[-10.9677,8.5167]},"properties":{"code":"OU_233331","name":"Baiama CHP","level":"4","parent":"M2qEv692lS6","parentGraph":"ImspTQPwCqd/Vth0fbpFcsO/M2qEv692lS6","groups":["uYxK4wmcPqA","f25dqv3Y7Z0","oRVt7g429ZO"]}},{"type":"Feature","id":"c41XRVOYNJm","geometry":{"type":"Point","coordinates":[-10.7692,8.034]},"properties":{"code":"OU_204914","name":"Baiima CHP","level":"4","parent":"yu4N82FFeLm","parentGraph":"ImspTQPwCqd/jUb8gELQApl/yu4N82FFeLm","groups":["uYxK4wmcPqA","GGghZsfu7qV","oRVt7g429ZO"]}},{"type":"Feature","id":"Rll4VmTDRiE","geometry":{"type":"Point","coordinates":[-11.8752,8.2806]},"properties":{"code":"OU_246994","name":"Bai Largo MCHP","level":"4","parent":"nV3OkyzF4US","parentGraph":"ImspTQPwCqd/jmIPBj66vD6/nV3OkyzF4US","groups":["f25dqv3Y7Z0","EYbopBOJWsW","oRVt7g429ZO"]}},{"type":"Feature","id":"Eyj2kiEJ7M3","geometry":{"type":"Point","coordinates":[-13.2392,8.8219]},"properties":{"code":"OU_254996","name":"Bailor CHP","level":"4","parent":"fRLX08WHWpL","parentGraph":"ImspTQPwCqd/TEQlaapDQoK/fRLX08WHWpL","groups":["uYxK4wmcPqA","f25dqv3Y7Z0","oRVt7g429ZO"]}},{"type":"Feature","id":"MHAWZr2Caxw","geometry":{"type":"Point","coordinates":[-12.2933,8.3955]},"properties":{"code":"OU_268228","name":"Bakeloko CHP","level":"4","parent":"NNE0YMCDZkO","parentGraph":"ImspTQPwCqd/eIQbndfxQMb/NNE0YMCDZkO","groups":["uYxK4wmcPqA","f25dqv3Y7Z0","oRVt7g429ZO"]}},{"type":"Feature","id":"mUuCjQWMaOc","geometry":{"type":"Point","coordinates":[-11.3454,8.3164]},"properties":{"code":"OU_222679","name":"Bambara MCHP","level":"4","parent":"X7dWcGerQIm","parentGraph":"ImspTQPwCqd/kJq2mPyFEHo/X7dWcGerQIm","groups":["f25dqv3Y7Z0","EYbopBOJWsW","oRVt7g429ZO"]}},{"type":"Feature","id":"aSfF9kuNINJ","geometry":{"type":"Point","coordinates":[-12.1625,7.9794]},"properties":{"code":"OU_247021","name":"Bambuibu Tommy MCHP","level":"4","parent":"RndxKqQGzUl","parentGraph":"ImspTQPwCqd/jmIPBj66vD6/RndxKqQGzUl","groups":["f25dqv3Y7Z0","EYbopBOJWsW","oRVt7g429ZO"]}},{"type":"Feature","id":"FNnj3jKGS7i","geometry":{"type":"Point","coordinates":[-11.6522,7.5724]},"properties":{"code":"OU_260387","name":"Bandajuma Clinic CHC","level":"4","parent":"NqWaKXcg01b","parentGraph":"ImspTQPwCqd/bL4ooGhyHRQ/NqWaKXcg01b","groups":["f25dqv3Y7Z0","oRVt7g429ZO","CXw2yu5fodb"]}},{"type":"Feature","id":"ABM75Q1UfoP","geometry":{"type":"Point","coordinates":[-10.5735,8.2753]},"properties":{"code":"OU_204882","name":"Bandajuma Kpolihun CHP","level":"4","parent":"ERmBhYkhV6Y","parentGraph":"ImspTQPwCqd/jUb8gELQApl/ERmBhYkhV6Y","groups":["uYxK4wmcPqA","GGghZsfu7qV","oRVt7g429ZO"]}},{"type":"Feature","id":"MpcMjLmbATv","geometry":{"type":"Point","coordinates":[-10.5735,8.2755]},"properties":{"code":"OU_204938","name":"Bandajuma Yawei CHC","level":"4","parent":"byp7w6Xd9Df","parentGraph":"ImspTQPwCqd/jUb8gELQApl/byp7w6Xd9Df","groups":["GGghZsfu7qV","oRVt7g429ZO","CXw2yu5fodb"]}},{"type":"Feature","id":"uPshwz3B3Uu","geometry":{"type":"Point","coordinates":[-11.4089,7.3691]},"properties":{"code":"OU_260436","name":"Bandasuma CHP","level":"4","parent":"RzKeCma9qb1","parentGraph":"ImspTQPwCqd/bL4ooGhyHRQ/RzKeCma9qb1","groups":["uYxK4wmcPqA","f25dqv3Y7Z0","oRVt7g429ZO"]}},{"type":"Feature","id":"aF6iPGbrcRk","geometry":{"type":"Point","coordinates":[-10.7983,8.6966]},"properties":{"code":"OU_233360","name":"Bandasuma Fiama MCHP","level":"4","parent":"CF243RPvNY7","parentGraph":"ImspTQPwCqd/Vth0fbpFcsO/CF243RPvNY7","groups":["f25dqv3Y7Z0","EYbopBOJWsW","oRVt7g429ZO"]}},{"type":"Feature","id":"t1aAdpBbDB3","geometry":{"type":"Point","coordinates":[-10.7096,8.5268]},"properties":{"code":"OU_233318","name":"Bandusuma MCHP","level":"4","parent":"iGHlidSFdpu","parentGraph":"ImspTQPwCqd/Vth0fbpFcsO/iGHlidSFdpu","groups":["f25dqv3Y7Z0","EYbopBOJWsW","oRVt7g429ZO"]}},{"type":"Feature","id":"FLjwMPWLrL2","geometry":{"type":"Point","coordinates":[-11.6677,8.4165]},"properties":{"code":"OU_1126","name":"Baomahun CHC","level":"4","parent":"npWGUj37qDe","parentGraph":"ImspTQPwCqd/O6uvpzGd5pu/npWGUj37qDe","groups":["GGghZsfu7qV","oRVt7g429ZO","CXw2yu5fodb"]}},{"type":"Feature","id":"t52CJEyLhch","geometry":{"type":"Point","coordinates":[-10.7867,8.4249]},"properties":{"code":"OU_233393","name":"Baoma MCHP","level":"4","parent":"ajILkI0cfxn","parentGraph":"ImspTQPwCqd/Vth0fbpFcsO/ajILkI0cfxn","groups":["f25dqv3Y7Z0","EYbopBOJWsW","oRVt7g429ZO"]}},{"type":"Feature","id":"Y8foq27WLti","geometry":{"type":"Point","coordinates":[-11.3282,8.0421]},"properties":{"code":"OU_222728","name":"Baoma Oil Mill CHC","level":"4","parent":"K1r3uF6eZ8n","parentGraph":"ImspTQPwCqd/kJq2mPyFEHo/K1r3uF6eZ8n","groups":["f25dqv3Y7Z0","oRVt7g429ZO","CXw2yu5fodb"]}},{"type":"Feature","id":"jNb63DIHuwU","geometry":{"type":"Point","coordinates":[-11.4382,7.9294]},"properties":{"code":"OU_573","name":"Baoma Station CHP","level":"4","parent":"vWbkYPRmKyS","parentGraph":"ImspTQPwCqd/O6uvpzGd5pu/vWbkYPRmKyS","groups":["uYxK4wmcPqA","oRVt7g429ZO"]}},{"type":"Feature","id":"QIp6DHlMGfb","geometry":{"type":"Point","coordinates":[-13.1137,8.942]},"properties":{"code":"OU_211247","name":"Baptist Centre Kassirie","level":"4","parent":"r06ohri9wA9","parentGraph":"ImspTQPwCqd/PMa2VCrupOd/r06ohri9wA9","groups":["GGghZsfu7qV"]}},{"type":"Feature","id":"weLTzWrLXCO","geometry":{"type":"Point","coordinates":[-13.1107,9.0087]},"properties":{"code":"OU_211255","name":"Bapuya MCHP","level":"4","parent":"r06ohri9wA9","parentGraph":"ImspTQPwCqd/PMa2VCrupOd/r06ohri9wA9","groups":["GGghZsfu7qV","EYbopBOJWsW","oRVt7g429ZO"]}},{"type":"Feature","id":"y5hLlID8ihI","geometry":{"type":"Point","coordinates":[-11.5839,8.0202]},"properties":{"code":"OU_2732","name":"Barlie MCHP","level":"4","parent":"dGheVylzol6","parentGraph":"ImspTQPwCqd/O6uvpzGd5pu/dGheVylzol6","groups":["GGghZsfu7qV","EYbopBOJWsW","oRVt7g429ZO"]}},{"type":"Feature","id":"vyIl6s0lhKc","geometry":{"type":"Point","coordinates":[-12.9062,9.0382]},"properties":{"code":"OU_211229","name":"Barmoi Luma MCHP","level":"4","parent":"QywkxFudXrC","parentGraph":"ImspTQPwCqd/PMa2VCrupOd/QywkxFudXrC","groups":["GGghZsfu7qV","EYbopBOJWsW","oRVt7g429ZO"]}},{"type":"Feature","id":"vELaJEPLOPF","geometry":{"type":"Point","coordinates":[-12.75,9.092]},"properties":{"code":"OU_211258","name":"Barmoi Munu CHP","level":"4","parent":"FlBemv1NfEC","parentGraph":"ImspTQPwCqd/PMa2VCrupOd/FlBemv1NfEC","groups":["uYxK4wmcPqA","GGghZsfu7qV","oRVt7g429ZO"]}},{"type":"Feature","id":"sDTodaygv5u","geometry":{"type":"Point","coordinates":[-12.4486,8.3348]},"properties":{"code":"OU_268243","name":"Bath Bana MCHP","level":"4","parent":"NNE0YMCDZkO","parentGraph":"ImspTQPwCqd/eIQbndfxQMb/NNE0YMCDZkO","groups":["f25dqv3Y7Z0","EYbopBOJWsW","oRVt7g429ZO"]}},{"type":"Feature","id":"UGVLYrO63mR","geometry":{"type":"Point","coordinates":[-11.68610,7.39085]},"properties":{"code":"OU_1164","name":"Bathurst MCHP","level":"4","parent":"ARZ4y5i4reU","parentGraph":"ImspTQPwCqd/O6uvpzGd5pu/ARZ4y5i4reU","groups":["GGghZsfu7qV","EYbopBOJWsW","oRVt7g429ZO"]}},{"type":"Feature","id":"agM0BKQlTh3","geometry":{"type":"Point","coordinates":[-12.02582,9.39236]},"properties":{"code":"OU_193303","name":"Batkanu CHC","level":"4","parent":"hRZOIgQ0O1m","parentGraph":"ImspTQPwCqd/fdc6uOvgoji/hRZOIgQ0O1m","groups":["GGghZsfu7qV","oRVt7g429ZO","CXw2yu5fodb"]}},{"type":"Feature","id":"k92yudERPlv","geometry":{"type":"Point","coordinates":[-11.7258,7.4082]},"properties":{"code":"OU_260418","name":"Bayama MCHP","level":"4","parent":"YpVol7asWvd","parentGraph":"ImspTQPwCqd/bL4ooGhyHRQ/YpVol7asWvd","groups":["f25dqv3Y7Z0","EYbopBOJWsW","oRVt7g429ZO"]}},{"type":"Feature","id":"PwgoRuWEDvJ","geometry":{"type":"Point","coordinates":[-11.0428,7.6057]},"properties":{"code":"OU_222635","name":"Belebu CHP","level":"4","parent":"l7pFejMtUoF","parentGraph":"ImspTQPwCqd/kJq2mPyFEHo/l7pFejMtUoF","groups":["uYxK4wmcPqA","f25dqv3Y7Z0","oRVt7g429ZO"]}},{"type":"Feature","id":"uFp0ztDOFbI","geometry":{"type":"Point","coordinates":[-12.30127,7.49660]},"properties":{"code":"OU_197430","name":"Bendu CHC","level":"4","parent":"EB1zRKdYjdY","parentGraph":"ImspTQPwCqd/lc3eMKXaEfw/EB1zRKdYjdY","groups":["GGghZsfu7qV","oRVt7g429ZO","CXw2yu5fodb"]}},{"type":"Feature","id":"o0BgK1dLhF8","geometry":{"type":"Point","coordinates":[-11.4941,9.0633]},"properties":{"code":"OU_268170","name":"Bendugu CHC","level":"4","parent":"r1RUyfVBkLp","parentGraph":"ImspTQPwCqd/eIQbndfxQMb/r1RUyfVBkLp","groups":["f25dqv3Y7Z0","oRVt7g429ZO","CXw2yu5fodb"]}},{"type":"Feature","id":"n7wN9gMFfZ5","geometry":{"type":"Point","coordinates":[-12,7.3]},"properties":{"code":"OU_197435","name":"Benduma CHC","level":"4","parent":"HV8RTzgcFH3","parentGraph":"ImspTQPwCqd/lc3eMKXaEfw/HV8RTzgcFH3","groups":["GGghZsfu7qV","oRVt7g429ZO","CXw2yu5fodb"]}},{"type":"Feature","id":"Wr8kmywwseZ","geometry":{"type":"Point","coordinates":[-11.5217,8.0261]},"properties":{"code":"OU_602","name":"Benduma MCHP","level":"4","parent":"dGheVylzol6","parentGraph":"ImspTQPwCqd/O6uvpzGd5pu/dGheVylzol6","groups":["GGghZsfu7qV","EYbopBOJWsW","oRVt7g429ZO"]}},{"type":"Feature","id":"amgb83zVxp5","geometry":{"type":"Point","coordinates":[-10.9705,8.1001]},"properties":{"code":"OU_222674","name":"Bendu Mameima CHC","level":"4","parent":"x4HaBHHwBML","parentGraph":"ImspTQPwCqd/kJq2mPyFEHo/x4HaBHHwBML","groups":["f25dqv3Y7Z0","oRVt7g429ZO","CXw2yu5fodb"]}},{"type":"Feature","id":"DQHGtTGOP6b","geometry":{"type":"Point","coordinates":[-10.5741,8.2762]},"properties":{"code":"OU_204936","name":"Bendu (Yawei) CHP","level":"4","parent":"byp7w6Xd9Df","parentGraph":"ImspTQPwCqd/jUb8gELQApl/byp7w6Xd9Df","groups":["uYxK4wmcPqA","GGghZsfu7qV","oRVt7g429ZO"]}},{"type":"Feature","id":"wQ71REGAMet","geometry":{"type":"Point","coordinates":[-12.5365,7.8303]},"properties":{"code":"OU_247054","name":"Benkeh MCHP","level":"4","parent":"jPidqyo7cpF","parentGraph":"ImspTQPwCqd/jmIPBj66vD6/jPidqyo7cpF","groups":["f25dqv3Y7Z0","EYbopBOJWsW","oRVt7g429ZO"]}},{"type":"Feature","id":"OcRCVRy2M7X","geometry":{"type":"Point","coordinates":[-12.8975,8.6553]},"properties":{"code":"OU_254993","name":"Benkia MCHP","level":"4","parent":"fRLX08WHWpL","parentGraph":"ImspTQPwCqd/TEQlaapDQoK/fRLX08WHWpL","groups":["f25dqv3Y7Z0","EYbopBOJWsW","oRVt7g429ZO"]}},{"type":"Feature","id":"GHHvGp7tgtZ","geometry":{"type":"Point","coordinates":[-11.9822,8.9503]},"properties":{"code":"OU_193275","name":"Binkolo CHC","level":"4","parent":"XG8HGAbrbbL","parentGraph":"ImspTQPwCqd/fdc6uOvgoji/XG8HGAbrbbL","groups":["GGghZsfu7qV","oRVt7g429ZO","CXw2yu5fodb"]}},{"type":"Feature","id":"kUzpbgPCwVA","geometry":{"type":"Point","coordinates":[-11.3465,7.8719]},"properties":{"code":"OU_222624","name":"Blama CHC","level":"4","parent":"vzup1f6ynON","parentGraph":"ImspTQPwCqd/kJq2mPyFEHo/vzup1f6ynON","groups":["f25dqv3Y7Z0","oRVt7g429ZO","CXw2yu5fodb"]}},{"type":"Feature","id":"xXhKbgwL39t","geometry":{"type":"Point","coordinates":[-11.6356,7.3492]},"properties":{"code":"OU_260424","name":"Blama Massaquoi CHP","level":"4","parent":"eNtRuQrrZeo","parentGraph":"ImspTQPwCqd/bL4ooGhyHRQ/eNtRuQrrZeo","groups":["uYxK4wmcPqA","f25dqv3Y7Z0","oRVt7g429ZO"]}},{"type":"Feature","id":"L5gENbBNNup","geometry":{"type":"Point","coordinates":[-11.3423,8.187]},"properties":{"code":"OU_222689","name":"Boajibu CHC","level":"4","parent":"A3Fh37HWBWE","parentGraph":"ImspTQPwCqd/kJq2mPyFEHo/A3Fh37HWBWE","groups":["f25dqv3Y7Z0","oRVt7g429ZO","CXw2yu5fodb"]}},{"type":"Feature","id":"rZxk3S0qN63","geometry":{"type":"Point","coordinates":[-11.743,7.9643]},"properties":{"code":"OU_15","name":"Bo Govt. Hosp.","level":"4","parent":"U6Kr7Gtpidn","parentGraph":"ImspTQPwCqd/O6uvpzGd5pu/U6Kr7Gtpidn","groups":["oRVt7g429ZO"]}},{"type":"Feature","id":"PB8FMGbn19r","geometry":{"type":"Point","coordinates":[-10.8373,7.9594]},"properties":{"code":"OU_204864","name":"Bombohun MCHP","level":"4","parent":"KSdZwrU7Hh6","parentGraph":"ImspTQPwCqd/jUb8gELQApl/KSdZwrU7Hh6","groups":["GGghZsfu7qV","EYbopBOJWsW","oRVt7g429ZO"]}},{"type":"Feature","id":"VXrJKs8hic4","geometry":{"type":"Point","coordinates":[-11.0464,8.2318]},"properties":{"code":"OU_222661","name":"Bomie MCHP","level":"4","parent":"hdEuw2ugkVF","parentGraph":"ImspTQPwCqd/kJq2mPyFEHo/hdEuw2ugkVF","groups":["f25dqv3Y7Z0","EYbopBOJWsW","oRVt7g429ZO"]}},{"type":"Feature","id":"H97XE5Ea089","geometry":{"type":"Point","coordinates":[-12.6548,7.8188]},"properties":{"code":"OU_247045","name":"Bomotoke CHC","level":"4","parent":"AovmOHadayb","parentGraph":"ImspTQPwCqd/jmIPBj66vD6/AovmOHadayb","groups":["f25dqv3Y7Z0","oRVt7g429ZO","CXw2yu5fodb"]}},{"type":"Feature","id":"szbAJSWOXjT","geometry":{"type":"Point","coordinates":[-10.9456,8.6668]},"properties":{"code":"OU_233382","name":"Boroma MCHP","level":"4","parent":"TQkG0sX9nca","parentGraph":"ImspTQPwCqd/Vth0fbpFcsO/TQkG0sX9nca","groups":["f25dqv3Y7Z0","EYbopBOJWsW","oRVt7g429ZO"]}},{"type":"Feature","id":"vRC0stJ5y9Q","geometry":{"type":"Point","coordinates":[-11.7259,7.9403]},"properties":{"code":"OU_1010","name":"Bucksal Clinic","level":"4","parent":"U6Kr7Gtpidn","parentGraph":"ImspTQPwCqd/O6uvpzGd5pu/U6Kr7Gtpidn","groups":["MAs88nJc9nL","GGghZsfu7qV","RXL3lPSK8oG","oRVt7g429ZO"]}},{"type":"Feature","id":"LZclRdyVk1t","geometry":{"type":"Point","coordinates":[-12.0048,9.0892]},"properties":{"code":"OU_193238","name":"Bumbanday MCHP","level":"4","parent":"fwH9ipvXde9","parentGraph":"ImspTQPwCqd/fdc6uOvgoji/fwH9ipvXde9","groups":["GGghZsfu7qV","EYbopBOJWsW","oRVt7g429ZO"]}},{"type":"Feature","id":"OI0BQUurVFS","geometry":{"type":"Point","coordinates":[-11.9099,9.0709]},"properties":{"code":"OU_193236","name":"Bumban MCHP","level":"4","parent":"fwH9ipvXde9","parentGraph":"ImspTQPwCqd/fdc6uOvgoji/fwH9ipvXde9","groups":["GGghZsfu7qV","EYbopBOJWsW","oRVt7g429ZO"]}},{"type":"Feature","id":"DwpbWkiqjMy","geometry":{"type":"Point","coordinates":[-11.5642,7.4905]},"properties":{"code":"OU_260391","name":"Bumbeh MCHP","level":"4","parent":"N233eZJZ1bh","parentGraph":"ImspTQPwCqd/bL4ooGhyHRQ/N233eZJZ1bh","groups":["f25dqv3Y7Z0","EYbopBOJWsW","oRVt7g429ZO"]}},{"type":"Feature","id":"Q2USZSJmcNK","geometry":{"type":"Point","coordinates":[-11.7449,9.0449]},"properties":{"code":"OU_268195","name":"Bumbuna CHC","level":"4","parent":"smoyi1iYNK6","parentGraph":"ImspTQPwCqd/eIQbndfxQMb/smoyi1iYNK6","groups":["f25dqv3Y7Z0","oRVt7g429ZO","CXw2yu5fodb"]}},{"type":"Feature","id":"EJoI3HArJ2W","geometry":{"type":"Point","coordinates":[-11.8774,7.5052]},"properties":{"code":"OU_619","name":"Bum Kaku MCHP","level":"4","parent":"zFDYIgyGmXG","parentGraph":"ImspTQPwCqd/O6uvpzGd5pu/zFDYIgyGmXG","groups":["GGghZsfu7qV","EYbopBOJWsW","oRVt7g429ZO"]}},{"type":"Feature","id":"E497Rk80ivZ","geometry":{"type":"Point","coordinates":[-11.9033,7.8894]},"properties":{"code":"OU_651","name":"Bumpe CHC","level":"4","parent":"BGGmAwx33dj","parentGraph":"ImspTQPwCqd/O6uvpzGd5pu/BGGmAwx33dj","groups":["GGghZsfu7qV","oRVt7g429ZO","CXw2yu5fodb"]}},{"type":"Feature","id":"wbtk73Zwhj9","geometry":{"type":"Point","coordinates":[-10.80713,8.22032]},"properties":{"code":"OU_204874","name":"Bumpeh CHP","level":"4","parent":"GE25DpSrqpB","parentGraph":"ImspTQPwCqd/jUb8gELQApl/GE25DpSrqpB","groups":["uYxK4wmcPqA","GGghZsfu7qV","oRVt7g429ZO"]}},{"type":"Feature","id":"d9zRBAoM8OC","geometry":{"type":"Point","coordinates":[-11.5656,7.2841]},"properties":{"code":"OU_260423","name":"Bumpeh Perri CHC","level":"4","parent":"eNtRuQrrZeo","parentGraph":"ImspTQPwCqd/bL4ooGhyHRQ/eNtRuQrrZeo","groups":["f25dqv3Y7Z0","oRVt7g429ZO","CXw2yu5fodb"]}},{"type":"Feature","id":"mkIugjeYSjE","geometry":{"type":"Point","coordinates":[-10.5735,8.2755]},"properties":{"code":"OU_247027","name":"Bumpeh River CHP","level":"4","parent":"nOYt1LtFSyU","parentGraph":"ImspTQPwCqd/jmIPBj66vD6/nOYt1LtFSyU","groups":["uYxK4wmcPqA","f25dqv3Y7Z0","oRVt7g429ZO"]}},{"type":"Feature","id":"HVQ6gJE8R24","geometry":{"type":"Point","coordinates":[-12.9069,8.7642]},"properties":{"code":"OU_254994","name":"Bundulai MCHP","level":"4","parent":"fRLX08WHWpL","parentGraph":"ImspTQPwCqd/TEQlaapDQoK/fRLX08WHWpL","groups":["f25dqv3Y7Z0","EYbopBOJWsW","oRVt7g429ZO"]}},{"type":"Feature","id":"rpAgG9XCWhO","geometry":{"type":"Point","coordinates":[-12.8555,8.8958]},"properties":{"code":"OU_255052","name":"Bureh MCHP","level":"4","parent":"TA7NvKjsn4A","parentGraph":"ImspTQPwCqd/TEQlaapDQoK/TA7NvKjsn4A","groups":["f25dqv3Y7Z0","EYbopBOJWsW","oRVt7g429ZO"]}},{"type":"Feature","id":"h9q3qixffZT","geometry":{"type":"Point","coordinates":[-13.053,8.3098]},"properties":{"code":"OU_278399","name":"Campbell Town  CHP","level":"4","parent":"qtr8GGlm4gg","parentGraph":"ImspTQPwCqd/at6UHUQatSo/qtr8GGlm4gg","groups":["uYxK4wmcPqA","f25dqv3Y7Z0","oRVt7g429ZO"]}},{"type":"Feature","id":"U4FzUXMvbI8","geometry":{"type":"Point","coordinates":[-13.2379,8.6976]},"properties":{"code":"OU_255009","name":"Conakry Dee CHC","level":"4","parent":"vn9KJsLyP5f","parentGraph":"ImspTQPwCqd/TEQlaapDQoK/vn9KJsLyP5f","groups":["f25dqv3Y7Z0","oRVt7g429ZO","CXw2yu5fodb"]}},{"type":"Feature","id":"yTMrs5kClCv","geometry":{"type":"Point","coordinates":[-11.2034,8.6319]},"properties":{"code":"OU_233336","name":"Condama MCHP","level":"4","parent":"qgQ49DH9a0v","parentGraph":"ImspTQPwCqd/Vth0fbpFcsO/qgQ49DH9a0v","groups":["f25dqv3Y7Z0","EYbopBOJWsW","oRVt7g429ZO"]}},{"type":"Feature","id":"ldXIdLNUNEn","geometry":{"type":"Point","coordinates":[-13.2382,8.4883]},"properties":{"code":"OU_278320","name":"Connaught Hospital","level":"4","parent":"C9uduqDZr9d","parentGraph":"ImspTQPwCqd/at6UHUQatSo/C9uduqDZr9d","groups":["f25dqv3Y7Z0","tDZVQ1WtwpA","oRVt7g429ZO"]}},{"type":"Feature","id":"U2QkKSeyL5r","geometry":{"type":"Point","coordinates":[-12.9709,8.3578]},"properties":{"code":"OU_278374","name":"Crossing MCHP","level":"4","parent":"qtr8GGlm4gg","parentGraph":"ImspTQPwCqd/at6UHUQatSo/qtr8GGlm4gg","groups":["f25dqv3Y7Z0","EYbopBOJWsW","oRVt7g429ZO"]}},{"type":"Feature","id":"wByqtWCCuDJ","geometry":{"type":"Point","coordinates":[-11.7036,8.1207]},"properties":{"code":"OU_1095","name":"Damballa CHC","level":"4","parent":"KctpIIucige","parentGraph":"ImspTQPwCqd/O6uvpzGd5pu/KctpIIucige","groups":["GGghZsfu7qV","oRVt7g429ZO","CXw2yu5fodb"]}},{"type":"Feature","id":"RpRJUDOPtt7","geometry":{"type":"Point","coordinates":[-11.685,7.4774]},"properties":{"code":"OU_260405","name":"Dandabu CHP","level":"4","parent":"QwMiPiME3bA","parentGraph":"ImspTQPwCqd/bL4ooGhyHRQ/QwMiPiME3bA","groups":["uYxK4wmcPqA","f25dqv3Y7Z0","oRVt7g429ZO"]}},{"type":"Feature","id":"m5BX6CvJ6Ex","geometry":{"type":"Point","coordinates":[-10.8443,7.9901]},"properties":{"code":"OU_204865","name":"Daru CHC","level":"4","parent":"KSdZwrU7Hh6","parentGraph":"ImspTQPwCqd/jUb8gELQApl/KSdZwrU7Hh6","groups":["GGghZsfu7qV","oRVt7g429ZO","CXw2yu5fodb"]}},{"type":"Feature","id":"JemZqD90S44","geometry":{"type":"Point","coordinates":[-10.5745,8.2754]},"properties":{"code":"OU_204891","name":"Dawa MCHP","level":"4","parent":"hjpHnHZIniP","parentGraph":"ImspTQPwCqd/jUb8gELQApl/hjpHnHZIniP","groups":["GGghZsfu7qV","EYbopBOJWsW","oRVt7g429ZO"]}},{"type":"Feature","id":"C1tAqIpKB9k","geometry":{"type":"Point","coordinates":[-11.2063,7.8631]},"properties":{"code":"OU_222722","name":"Degbuama MCHP","level":"4","parent":"KIUCimTXf8Q","parentGraph":"ImspTQPwCqd/kJq2mPyFEHo/KIUCimTXf8Q","groups":["f25dqv3Y7Z0","EYbopBOJWsW","oRVt7g429ZO"]}},{"type":"Feature","id":"oIgBLlEo6eH","geometry":{"type":"Point","coordinates":[-11.2595,7.9779]},"properties":{"code":"OU_222729","name":"Deima MCHP","level":"4","parent":"K1r3uF6eZ8n","parentGraph":"ImspTQPwCqd/kJq2mPyFEHo/K1r3uF6eZ8n","groups":["f25dqv3Y7Z0","EYbopBOJWsW","oRVt7g429ZO"]}},{"type":"Feature","id":"sSgOnY1Xqd9","geometry":{"type":"Point","coordinates":[-12.79540,7.57179]},"properties":{"code":"OU_197399","name":"Delken MCHP","level":"4","parent":"g8DdBm7EmUt","parentGraph":"ImspTQPwCqd/lc3eMKXaEfw/g8DdBm7EmUt","groups":["GGghZsfu7qV","EYbopBOJWsW","oRVt7g429ZO"]}},{"type":"Feature","id":"qHBTf9A89xW","geometry":{"type":"Point","coordinates":[-10.5736,8.2754]},"properties":{"code":"OU_204876","name":"Dia CHP","level":"4","parent":"JsxnA2IywRo","parentGraph":"ImspTQPwCqd/jUb8gELQApl/JsxnA2IywRo","groups":["uYxK4wmcPqA","GGghZsfu7qV","oRVt7g429ZO"]}},{"type":"Feature","id":"jKZ0U8Og5aV","geometry":{"type":"Point","coordinates":[-11.1733,8.1519]},"properties":{"code":"OU_222683","name":"Dodo CHC","level":"4","parent":"QlCIp2S9NHs","parentGraph":"ImspTQPwCqd/kJq2mPyFEHo/QlCIp2S9NHs","groups":["f25dqv3Y7Z0","oRVt7g429ZO","CXw2yu5fodb"]}},{"type":"Feature","id":"rwfuVQHnZJ5","geometry":{"type":"Point","coordinates":[-10.5736,8.2754]},"properties":{"code":"OU_204904","name":"Dodo Kortuma CHP","level":"4","parent":"cM2BKSrj9F9","parentGraph":"ImspTQPwCqd/jUb8gELQApl/cM2BKSrj9F9","groups":["uYxK4wmcPqA","GGghZsfu7qV","oRVt7g429ZO"]}},{"type":"Feature","id":"hKD6hpZUh9v","geometry":{"type":"Point","coordinates":[-11.3818,8.2862]},"properties":{"code":"OU_222680","name":"Faala CHP","level":"4","parent":"X7dWcGerQIm","parentGraph":"ImspTQPwCqd/kJq2mPyFEHo/X7dWcGerQIm","groups":["uYxK4wmcPqA","f25dqv3Y7Z0","oRVt7g429ZO"]}},{"type":"Feature","id":"K6oyIMh7Lee","geometry":{"type":"Point","coordinates":[-11.7651,9.3901]},"properties":{"code":"OU_226224","name":"Fadugu CHC","level":"4","parent":"vEvs2ckGNQj","parentGraph":"ImspTQPwCqd/qhqAxPSTUXp/vEvs2ckGNQj","groups":["f25dqv3Y7Z0","oRVt7g429ZO","CXw2yu5fodb"]}},{"type":"Feature","id":"Gm7YUjhVi9Q","geometry":{"type":"Point","coordinates":[-11.4045,7.0881]},"properties":{"code":"OU_260415","name":"Fairo CHC","level":"4","parent":"d9iMR1MpuIO","parentGraph":"ImspTQPwCqd/bL4ooGhyHRQ/d9iMR1MpuIO","groups":["f25dqv3Y7Z0","oRVt7g429ZO","CXw2yu5fodb"]}},{"type":"Feature","id":"kuqKh33SPgg","geometry":{"type":"Point","coordinates":[-11.3208,9.8571]},"properties":{"code":"OU_226230","name":"Falaba CHC","level":"4","parent":"PaqugoqjRIj","parentGraph":"ImspTQPwCqd/qhqAxPSTUXp/PaqugoqjRIj","groups":["f25dqv3Y7Z0","oRVt7g429ZO","CXw2yu5fodb"]}},{"type":"Feature","id":"pRg7dkjqNPc","geometry":{"type":"Point","coordinates":[-11.5289,7.4203]},"properties":{"code":"OU_260425","name":"Falaba CHP","level":"4","parent":"eNtRuQrrZeo","parentGraph":"ImspTQPwCqd/bL4ooGhyHRQ/eNtRuQrrZeo","groups":["uYxK4wmcPqA","f25dqv3Y7Z0","oRVt7g429ZO"]}},{"type":"Feature","id":"YTQRSW91PxO","geometry":{"type":"Point","coordinates":[-12.3796,8.2111]},"properties":{"code":"OU_247091","name":"Falaba MCHP","level":"4","parent":"vULnao2hV5v","parentGraph":"ImspTQPwCqd/jmIPBj66vD6/vULnao2hV5v","groups":["f25dqv3Y7Z0","EYbopBOJWsW","oRVt7g429ZO"]}},{"type":"Feature","id":"fmLRqcL9sWF","geometry":{"type":"Point","coordinates":[-11.279,8.961]},"properties":{"code":"OU_226270","name":"Fankoya MCHP","level":"4","parent":"J4GiUImJZoE","parentGraph":"ImspTQPwCqd/qhqAxPSTUXp/J4GiUImJZoE","groups":["f25dqv3Y7Z0","EYbopBOJWsW","oRVt7g429ZO"]}},{"type":"Feature","id":"JLKGG67z7oj","geometry":{"type":"Point","coordinates":[-10.9707,8.6429]},"properties":{"code":"OU_233379","name":"Fatkom Muchendeh Maternity Clinic","level":"4","parent":"TQkG0sX9nca","parentGraph":"ImspTQPwCqd/Vth0fbpFcsO/TQkG0sX9nca","groups":["f25dqv3Y7Z0","RXL3lPSK8oG","oRVt7g429ZO"]}},{"type":"Feature","id":"r4W2vzlmPhm","geometry":{"type":"Point","coordinates":[-11.9229,7.6842]},"properties":{"code":"OU_1054","name":"Feiba CHP","level":"4","parent":"kU8vhUkAGaT","parentGraph":"ImspTQPwCqd/O6uvpzGd5pu/kU8vhUkAGaT","groups":["uYxK4wmcPqA","GGghZsfu7qV","oRVt7g429ZO"]}},{"type":"Feature","id":"rYIkxCJFtTX","geometry":{"type":"Point","coordinates":[-10.6418,8.5924]},"properties":{"code":"OU_233320","name":"Feuror MCHP","level":"4","parent":"iGHlidSFdpu","parentGraph":"ImspTQPwCqd/Vth0fbpFcsO/iGHlidSFdpu","groups":["f25dqv3Y7Z0","EYbopBOJWsW","oRVt7g429ZO"]}},{"type":"Feature","id":"xKaB8tfbTzm","geometry":{"type":"Point","coordinates":[-12.225,9.674]},"properties":{"code":"OU_193247","name":"Fintonia CHC","level":"4","parent":"Qhmi8IZyPyD","parentGraph":"ImspTQPwCqd/fdc6uOvgoji/Qhmi8IZyPyD","groups":["GGghZsfu7qV","oRVt7g429ZO","CXw2yu5fodb"]}},{"type":"Feature","id":"aVycEyoSBJx","geometry":{"type":"Point","coordinates":[-13.05933,8.44316]},"properties":{"code":"OU_278369","name":"Fogbo (WAR) MCHP","level":"4","parent":"qtr8GGlm4gg","parentGraph":"ImspTQPwCqd/at6UHUQatSo/qtr8GGlm4gg","groups":["f25dqv3Y7Z0","EYbopBOJWsW","oRVt7g429ZO"]}},{"type":"Feature","id":"D3oZZXtXjNk","geometry":{"type":"Point","coordinates":[-12.0712,8.3175]},"properties":{"code":"OU_268236","name":"Foindu MCHP","level":"4","parent":"NNE0YMCDZkO","parentGraph":"ImspTQPwCqd/eIQbndfxQMb/NNE0YMCDZkO","groups":["f25dqv3Y7Z0","EYbopBOJWsW","oRVt7g429ZO"]}},{"type":"Feature","id":"z1ielwdLtPl","geometry":{"type":"Point","coordinates":[-12.4992,8.7502]},"properties":{"code":"OU_255027","name":"Foredugu MCHP","level":"4","parent":"Pc3JTyqnsmL","parentGraph":"ImspTQPwCqd/TEQlaapDQoK/Pc3JTyqnsmL","groups":["f25dqv3Y7Z0","EYbopBOJWsW","oRVt7g429ZO"]}},{"type":"Feature","id":"JKhjdiwoQZu","geometry":{"type":"Point","coordinates":[-11.4577,9.25]},"properties":{"code":"OU_226267","name":"Foria CHP","level":"4","parent":"Lt8U7GVWvSR","parentGraph":"ImspTQPwCqd/qhqAxPSTUXp/Lt8U7GVWvSR","groups":["f25dqv3Y7Z0","EYbopBOJWsW","oRVt7g429ZO"]}},{"type":"Feature","id":"OwhDCucf4Ue","geometry":{"type":"Point","coordinates":[-11.3831,8.5906]},"properties":{"code":"OU_268183","name":"Fotaneh Junction MCHP","level":"4","parent":"l0ccv2yzfF3","parentGraph":"ImspTQPwCqd/eIQbndfxQMb/l0ccv2yzfF3","groups":["f25dqv3Y7Z0","EYbopBOJWsW","oRVt7g429ZO"]}},{"type":"Feature","id":"eRg3KZyWUSJ","geometry":{"type":"Point","coordinates":[-11.7607,7.9562]},"properties":{"code":"OU_839","name":"Fullawahun MCHP","level":"4","parent":"U6Kr7Gtpidn","parentGraph":"ImspTQPwCqd/O6uvpzGd5pu/U6Kr7Gtpidn","groups":["GGghZsfu7qV","EYbopBOJWsW","oRVt7g429ZO"]}},{"type":"Feature","id":"uDzWmUDHKeR","geometry":{"type":"Point","coordinates":[-11.574,7.5612]},"properties":{"code":"OU_260389","name":"Futa CHC","level":"4","parent":"N233eZJZ1bh","parentGraph":"ImspTQPwCqd/bL4ooGhyHRQ/N233eZJZ1bh","groups":["f25dqv3Y7Z0","oRVt7g429ZO","CXw2yu5fodb"]}},{"type":"Feature","id":"UWhv0MQOqoB","geometry":{"type":"Point","coordinates":[-12.1758,7.5355]},"properties":{"code":"OU_197395","name":"Gambia CHP","level":"4","parent":"VCtF1DbspR5","parentGraph":"ImspTQPwCqd/lc3eMKXaEfw/VCtF1DbspR5","groups":["uYxK4wmcPqA","GGghZsfu7qV","oRVt7g429ZO"]}},{"type":"Feature","id":"ZdPkczYqeIY","geometry":{"type":"Point","coordinates":[-12.61438,8.10341]},"properties":{"code":"OU_247092","name":"Gandorhun CHC","level":"4","parent":"vULnao2hV5v","parentGraph":"ImspTQPwCqd/jmIPBj66vD6/vULnao2hV5v","groups":["f25dqv3Y7Z0","oRVt7g429ZO","CXw2yu5fodb"]}},{"type":"Feature","id":"IWb1hstfROc","geometry":{"type":"Point","coordinates":[-11.4489,7.6147]},"properties":{"code":"OU_222651","name":"Gandorhun CHP","level":"4","parent":"uKC54fzxRzO","parentGraph":"ImspTQPwCqd/kJq2mPyFEHo/uKC54fzxRzO","groups":["uYxK4wmcPqA","f25dqv3Y7Z0","oRVt7g429ZO"]}},{"type":"Feature","id":"GAvxcmr5jB1","geometry":{"type":"Point","coordinates":[-11.1884,7.7155]},"properties":{"code":"OU_222738","name":"Gao MCHP","level":"4","parent":"myQ4q1W6B4y","parentGraph":"ImspTQPwCqd/kJq2mPyFEHo/myQ4q1W6B4y","groups":["f25dqv3Y7Z0","EYbopBOJWsW","oRVt7g429ZO"]}},{"type":"Feature","id":"ei21lW7hFPX","geometry":{"type":"Point","coordinates":[-11.6133,7.839]},"properties":{"code":"OU_826","name":"Gbaama MCHP","level":"4","parent":"daJPPxtIrQn","parentGraph":"ImspTQPwCqd/O6uvpzGd5pu/daJPPxtIrQn","groups":["GGghZsfu7qV","EYbopBOJWsW","oRVt7g429ZO"]}},{"type":"Feature","id":"kedYKTsv95j","geometry":{"type":"Point","coordinates":[-11.2776,8.0109]},"properties":{"code":"OU_222730","name":"Gbado MCHP","level":"4","parent":"K1r3uF6eZ8n","parentGraph":"ImspTQPwCqd/kJq2mPyFEHo/K1r3uF6eZ8n","groups":["f25dqv3Y7Z0","EYbopBOJWsW","oRVt7g429ZO"]}},{"type":"Feature","id":"jGYT5U5qJP6","geometry":{"type":"Point","coordinates":[-11.8495,8.1094]},"properties":{"code":"OU_653","name":"Gbaiima CHC","level":"4","parent":"YmmeuGbqOwR","parentGraph":"ImspTQPwCqd/O6uvpzGd5pu/YmmeuGbqOwR","groups":["GGghZsfu7qV","oRVt7g429ZO","CXw2yu5fodb"]}},{"type":"Feature","id":"QFcMulIoEii","geometry":{"type":"Point","coordinates":[-11.3387,8.0452]},"properties":{"code":"OU_193217","name":"Gbainkfay MCHP","level":"4","parent":"e1eIKM1GIF3","parentGraph":"ImspTQPwCqd/fdc6uOvgoji/e1eIKM1GIF3","groups":["GGghZsfu7qV","EYbopBOJWsW","oRVt7g429ZO"]}},{"type":"Feature","id":"nDoybVJLD74","geometry":{"type":"Point","coordinates":[-10.4887,8.2545]},"properties":{"code":"OU_204898","name":"Gbalahun CHP","level":"4","parent":"cM2BKSrj9F9","parentGraph":"ImspTQPwCqd/jUb8gELQApl/cM2BKSrj9F9","groups":["uYxK4wmcPqA","GGghZsfu7qV","oRVt7g429ZO"]}},{"type":"Feature","id":"IPvrsWbm0EM","geometry":{"type":"Point","coordinates":[-12.6562,9]},"properties":{"code":"OU_211219","name":"Gbalamuya MCHP","level":"4","parent":"qIRCo0MfuGb","parentGraph":"ImspTQPwCqd/PMa2VCrupOd/qIRCo0MfuGb","groups":["GGghZsfu7qV","EYbopBOJWsW","oRVt7g429ZO"]}},{"type":"Feature","id":"AlLmKZIIIT4","geometry":{"type":"Point","coordinates":[-10.669,8.6426]},"properties":{"code":"OU_233323","name":"Gbamandu MCHP","level":"4","parent":"iGHlidSFdpu","parentGraph":"ImspTQPwCqd/Vth0fbpFcsO/iGHlidSFdpu","groups":["f25dqv3Y7Z0","EYbopBOJWsW","oRVt7g429ZO"]}},{"type":"Feature","id":"D2rB1GRuh8C","geometry":{"type":"Point","coordinates":[-12.3097,7.7058]},"properties":{"code":"OU_197418","name":"Gbamgbama CHC","level":"4","parent":"XEyIRFd9pct","parentGraph":"ImspTQPwCqd/lc3eMKXaEfw/XEyIRFd9pct","groups":["GGghZsfu7qV","oRVt7g429ZO","CXw2yu5fodb"]}},{"type":"Feature","id":"lQIe6vtSe1P","geometry":{"type":"Point","coordinates":[-10.857,8.7842]},"properties":{"code":"OU_233381","name":"Gbangadu MCHP","level":"4","parent":"TQkG0sX9nca","parentGraph":"ImspTQPwCqd/Vth0fbpFcsO/TQkG0sX9nca","groups":["f25dqv3Y7Z0","EYbopBOJWsW","oRVt7g429ZO"]}},{"type":"Feature","id":"ubsjwFFBaJM","geometry":{"type":"Point","coordinates":[-12.3805,7.8077]},"properties":{"code":"OU_247016","name":"Gbangbatoke CHC","level":"4","parent":"W5fN3G6y1VI","parentGraph":"ImspTQPwCqd/jmIPBj66vD6/W5fN3G6y1VI","groups":["f25dqv3Y7Z0","oRVt7g429ZO","CXw2yu5fodb"]}},{"type":"Feature","id":"VH7hLUaypel","geometry":{"type":"Point","coordinates":[-11.3059,8.1724]},"properties":{"code":"OU_222688","name":"Gbangeima MCHP","level":"4","parent":"A3Fh37HWBWE","parentGraph":"ImspTQPwCqd/kJq2mPyFEHo/A3Fh37HWBWE","groups":["f25dqv3Y7Z0","EYbopBOJWsW","oRVt7g429ZO"]}},{"type":"Feature","id":"E9oBVjyEaCe","geometry":{"type":"Point","coordinates":[-11.7435,7.9897]},"properties":{"code":"OU_841","name":"Gbanja Town MCHP","level":"4","parent":"U6Kr7Gtpidn","parentGraph":"ImspTQPwCqd/O6uvpzGd5pu/U6Kr7Gtpidn","groups":["GGghZsfu7qV","EYbopBOJWsW","oRVt7g429ZO"]}},{"type":"Feature","id":"uedNhvYPMNu","geometry":{"type":"Point","coordinates":[-12.2658,9.2491]},"properties":{"code":"OU_193216","name":"Gbanti CHC","level":"4","parent":"e1eIKM1GIF3","parentGraph":"ImspTQPwCqd/fdc6uOvgoji/e1eIKM1GIF3","groups":["GGghZsfu7qV","oRVt7g429ZO","CXw2yu5fodb"]}},{"type":"Feature","id":"TEVtOFKcLAP","geometry":{"type":"Point","coordinates":[-12.2,7.4]},"properties":{"code":"OU_197447","name":"Gbap CHC","level":"4","parent":"VP397wRvePm","parentGraph":"ImspTQPwCqd/lc3eMKXaEfw/VP397wRvePm","groups":["GGghZsfu7qV","oRVt7g429ZO","CXw2yu5fodb"]}},{"type":"Feature","id":"U8tyWV7WmIB","geometry":{"type":"Point","coordinates":[-10.5736,8.2754]},"properties":{"code":"OU_204881","name":"Gbeika MCHP","level":"4","parent":"ERmBhYkhV6Y","parentGraph":"ImspTQPwCqd/jUb8gELQApl/ERmBhYkhV6Y","groups":["GGghZsfu7qV","EYbopBOJWsW","oRVt7g429ZO"]}},{"type":"Feature","id":"YAuJ3fyoEuI","geometry":{"type":"Point","coordinates":[-12.2074,9.1075]},"properties":{"code":"OU_193281","name":"Gbendembu Wesleyan CHC","level":"4","parent":"BXJdOLvUrZB","parentGraph":"ImspTQPwCqd/fdc6uOvgoji/BXJdOLvUrZB","groups":["GGghZsfu7qV","oRVt7g429ZO","CXw2yu5fodb"]}},{"type":"Feature","id":"y77LiPqLMoq","geometry":{"type":"Point","coordinates":[-11.4701,9.6228]},"properties":{"code":"OU_226236","name":"Gbenikoro MCHP","level":"4","parent":"VGAFxBXz16y","parentGraph":"ImspTQPwCqd/qhqAxPSTUXp/VGAFxBXz16y","groups":["f25dqv3Y7Z0","EYbopBOJWsW","oRVt7g429ZO"]}},{"type":"Feature","id":"D7UVRRE9iUC","geometry":{"type":"Point","coordinates":[-11.6447,9.9432]},"properties":{"code":"OU_226255","name":"Gbentu CHP","level":"4","parent":"iEkBZnMDarP","parentGraph":"ImspTQPwCqd/qhqAxPSTUXp/iEkBZnMDarP","groups":["uYxK4wmcPqA","f25dqv3Y7Z0","oRVt7g429ZO"]}},{"type":"Feature","id":"qELjt3LRkSD","geometry":{"type":"Point","coordinates":[-11.1447,9.4149]},"properties":{"code":"OU_226251","name":"Gberifeh MCHP","level":"4","parent":"OTFepb1k9Db","parentGraph":"ImspTQPwCqd/qhqAxPSTUXp/OTFepb1k9Db","groups":["f25dqv3Y7Z0","EYbopBOJWsW","oRVt7g429ZO"]}},{"type":"Feature","id":"LFpl1falVZi","geometry":{"type":"Point","coordinates":[-11.4434,9.9115]},"properties":{"code":"OU_226218","name":"Gbindi CHP","level":"4","parent":"Mr4au3jR9bt","parentGraph":"ImspTQPwCqd/qhqAxPSTUXp/Mr4au3jR9bt","groups":["uYxK4wmcPqA","f25dqv3Y7Z0","oRVt7g429ZO"]}},{"type":"Feature","id":"TYq1YW7qs7k","geometry":{"type":"Point","coordinates":[-11.1993,7.8604]},"properties":{"code":"OU_222721","name":"Gbo-Lambayama 2 MCHP","level":"4","parent":"KIUCimTXf8Q","parentGraph":"ImspTQPwCqd/kJq2mPyFEHo/KIUCimTXf8Q","groups":["f25dqv3Y7Z0","EYbopBOJWsW","oRVt7g429ZO"]}},{"type":"Feature","id":"vwvDblM3MNX","geometry":{"type":"Point","coordinates":[-12.7379,9.3485]},"properties":{"code":"OU_211222","name":"Gbolon MCHP","level":"4","parent":"kbPmt60yi0L","parentGraph":"ImspTQPwCqd/PMa2VCrupOd/kbPmt60yi0L","groups":["GGghZsfu7qV","EYbopBOJWsW","oRVt7g429ZO"]}},{"type":"Feature","id":"X3D19LoA2Ij","geometry":{"type":"Point","coordinates":[-12.6572,8.9258]},"properties":{"code":"OU_254978","name":"Gbombana MCHP","level":"4","parent":"ZiOVcrSjSYe","parentGraph":"ImspTQPwCqd/TEQlaapDQoK/ZiOVcrSjSYe","groups":["f25dqv3Y7Z0","EYbopBOJWsW","oRVt7g429ZO"]}},{"type":"Feature","id":"bHcw141PTsE","geometry":{"type":"Point","coordinates":[-11.8495,7.3193]},"properties":{"code":"OU_260407","name":"Gbondapi CHC","level":"4","parent":"QwMiPiME3bA","parentGraph":"ImspTQPwCqd/bL4ooGhyHRQ/QwMiPiME3bA","groups":["f25dqv3Y7Z0","oRVt7g429ZO","CXw2yu5fodb"]}},{"type":"Feature","id":"tGf942oWszb","geometry":{"type":"Point","coordinates":[-11.7861,8.0307]},"properties":{"code":"OU_843","name":"Gbongboma MCHP","level":"4","parent":"U6Kr7Gtpidn","parentGraph":"ImspTQPwCqd/O6uvpzGd5pu/U6Kr7Gtpidn","groups":["GGghZsfu7qV","EYbopBOJWsW","oRVt7g429ZO"]}},{"type":"Feature","id":"MMrdfNDfBIi","geometry":{"type":"Point","coordinates":[-12.066,7.6719]},"properties":{"code":"OU_197428","name":"Gbongeh CHP","level":"4","parent":"aWQTfvgPA5v","parentGraph":"ImspTQPwCqd/lc3eMKXaEfw/aWQTfvgPA5v","groups":["uYxK4wmcPqA","GGghZsfu7qV","oRVt7g429ZO"]}},{"type":"Feature","id":"rebbn0ooFSO","geometry":{"type":"Point","coordinates":[-12.3878,8.0557]},"properties":{"code":"OU_247064","name":"Gbongeima MCHP","level":"4","parent":"USQdmvrHh1Q","parentGraph":"ImspTQPwCqd/jmIPBj66vD6/USQdmvrHh1Q","groups":["f25dqv3Y7Z0","EYbopBOJWsW","oRVt7g429ZO"]}},{"type":"Feature","id":"HOgWkpYH3KB","geometry":{"type":"Point","coordinates":[-10.6357,8.8919]},"properties":{"code":"OU_233350","name":"Gbongongor CHP","level":"4","parent":"LhaAPLxdSFH","parentGraph":"ImspTQPwCqd/Vth0fbpFcsO/LhaAPLxdSFH","groups":["uYxK4wmcPqA","f25dqv3Y7Z0","oRVt7g429ZO"]}},{"type":"Feature","id":"BXJnMD2eJAx","geometry":{"type":"Point","coordinates":[-12.3161,9.2398]},"properties":{"code":"OU_193222","name":"Gbonkobana CHP","level":"4","parent":"e1eIKM1GIF3","parentGraph":"ImspTQPwCqd/fdc6uOvgoji/e1eIKM1GIF3","groups":["uYxK4wmcPqA","GGghZsfu7qV","oRVt7g429ZO"]}},{"type":"Feature","id":"zm9breCeT1m","geometry":{"type":"Point","coordinates":[-12.8428,8.7827]},"properties":{"code":"OU_254959","name":"Gbonkoh Kareneh MCHP","level":"4","parent":"JdqfYTIFZXN","parentGraph":"ImspTQPwCqd/TEQlaapDQoK/JdqfYTIFZXN","groups":["f25dqv3Y7Z0","EYbopBOJWsW","oRVt7g429ZO"]}},{"type":"Feature","id":"v2vi8UaIYlo","geometry":{"type":"Point","coordinates":[-12.5042,9.0331]},"properties":{"code":"OU_193307","name":"Gbonkonka CHP","level":"4","parent":"hRZOIgQ0O1m","parentGraph":"ImspTQPwCqd/fdc6uOvgoji/hRZOIgQ0O1m","groups":["uYxK4wmcPqA","GGghZsfu7qV","oRVt7g429ZO"]}},{"type":"Feature","id":"i7qaYfmGVDr","geometry":{"type":"Point","coordinates":[-11.7296,7.9718]},"properties":{"code":"OU_845","name":"Gbotima MCHP","level":"4","parent":"U6Kr7Gtpidn","parentGraph":"ImspTQPwCqd/O6uvpzGd5pu/U6Kr7Gtpidn","groups":["GGghZsfu7qV","EYbopBOJWsW","oRVt7g429ZO"]}},{"type":"Feature","id":"DA2BEQMhv9B","geometry":{"type":"Point","coordinates":[-12.1244,8.2511]},"properties":{"code":"OU_246993","name":"Gbuihun MCHP","level":"4","parent":"nV3OkyzF4US","parentGraph":"ImspTQPwCqd/jmIPBj66vD6/nV3OkyzF4US","groups":["f25dqv3Y7Z0","EYbopBOJWsW","oRVt7g429ZO"]}},{"type":"Feature","id":"FZxJ0KST9jn","geometry":{"type":"Point","coordinates":[-11.3916,7.8975]},"properties":{"code":"OU_222626","name":"Gelehun MCHP","level":"4","parent":"vzup1f6ynON","parentGraph":"ImspTQPwCqd/kJq2mPyFEHo/vzup1f6ynON","groups":["f25dqv3Y7Z0","EYbopBOJWsW","oRVt7g429ZO"]}},{"type":"Feature","id":"W3t0pSZLtrC","geometry":{"type":"Point","coordinates":[-11.3478,8.233]},"properties":{"code":"OU_222678","name":"Gendema MCHP","level":"4","parent":"X7dWcGerQIm","parentGraph":"ImspTQPwCqd/kJq2mPyFEHo/X7dWcGerQIm","groups":["f25dqv3Y7Z0","EYbopBOJWsW","oRVt7g429ZO"]}},{"type":"Feature","id":"FbD5Z8z22Yb","geometry":{"type":"Point","coordinates":[-11.694,7.5099]},"properties":{"code":"OU_260385","name":"Geoma Jagor CHC","level":"4","parent":"NqWaKXcg01b","parentGraph":"ImspTQPwCqd/bL4ooGhyHRQ/NqWaKXcg01b","groups":["f25dqv3Y7Z0","oRVt7g429ZO","CXw2yu5fodb"]}},{"type":"Feature","id":"U514Dz4v9pv","geometry":{"type":"Point","coordinates":[-13.23527,8.46819]},"properties":{"code":"OU_278330","name":"George Brook Health Centre","level":"4","parent":"C9uduqDZr9d","parentGraph":"ImspTQPwCqd/at6UHUQatSo/C9uduqDZr9d","groups":["f25dqv3Y7Z0","oRVt7g429ZO","CXw2yu5fodb"]}},{"type":"Feature","id":"m0XorV4WWg0","geometry":{"type":"Point","coordinates":[-13.2185,8.4817]},"properties":{"code":"OU_278361","name":"Ginger Hall Health Centre","level":"4","parent":"C9uduqDZr9d","parentGraph":"ImspTQPwCqd/at6UHUQatSo/C9uduqDZr9d","groups":["f25dqv3Y7Z0","oRVt7g429ZO","CXw2yu5fodb"]}},{"type":"Feature","id":"dQggcljEImF","geometry":{"type":"Point","coordinates":[-13.29096,8.43552]},"properties":{"code":"OU_278392","name":"Goderich Health Centre","level":"4","parent":"qtr8GGlm4gg","parentGraph":"ImspTQPwCqd/at6UHUQatSo/qtr8GGlm4gg","groups":["f25dqv3Y7Z0","oRVt7g429ZO","CXw2yu5fodb"]}},{"type":"Feature","id":"lf7FRlrchg3","geometry":{"type":"Point","coordinates":[-11.3602,7.2429]},"properties":{"code":"OU_260383","name":"Gofor CHP","level":"4","parent":"BD9gU0GKlr2","parentGraph":"ImspTQPwCqd/bL4ooGhyHRQ/BD9gU0GKlr2","groups":["uYxK4wmcPqA","f25dqv3Y7Z0","oRVt7g429ZO"]}},{"type":"Feature","id":"azRICFoILuh","geometry":{"type":"Point","coordinates":[-11.5444,7.9049]},"properties":{"code":"OU_577","name":"Golu MCHP","level":"4","parent":"vWbkYPRmKyS","parentGraph":"ImspTQPwCqd/O6uvpzGd5pu/vWbkYPRmKyS","groups":["EYbopBOJWsW","oRVt7g429ZO","CXw2yu5fodb"]}},{"type":"Feature","id":"fRV3Fhz1IP8","geometry":{"type":"Point","coordinates":[-12.1349,7.753]},"properties":{"code":"OU_247004","name":"Gondama MCHP","level":"4","parent":"DBs6e2Oxaj1","parentGraph":"ImspTQPwCqd/jmIPBj66vD6/DBs6e2Oxaj1","groups":["f25dqv3Y7Z0","EYbopBOJWsW","oRVt7g429ZO"]}},{"type":"Feature","id":"QpRIPul20Sb","geometry":{"type":"Point","coordinates":[-11.2373,7.467]},"properties":{"code":"OU_222637","name":"Gorahun CHC","level":"4","parent":"l7pFejMtUoF","parentGraph":"ImspTQPwCqd/kJq2mPyFEHo/l7pFejMtUoF","groups":["f25dqv3Y7Z0","oRVt7g429ZO","CXw2yu5fodb"]}},{"type":"Feature","id":"NnQpISrLYWZ","geometry":{"type":"Point","coordinates":[-12.57888,7.59180]},"properties":{"code":"OU_197444","name":"Govt. Hosp. Bonthe","level":"4","parent":"ENHOJz3UH5L","parentGraph":"ImspTQPwCqd/lc3eMKXaEfw/ENHOJz3UH5L","groups":["GGghZsfu7qV","tDZVQ1WtwpA","oRVt7g429ZO"]}},{"type":"Feature","id":"ZvX8lXd1tYs","geometry":{"type":"Point","coordinates":[-12.785,8.7657]},"properties":{"code":"OU_254955","name":"Govt. Hospital","level":"4","parent":"JdqfYTIFZXN","parentGraph":"ImspTQPwCqd/TEQlaapDQoK/JdqfYTIFZXN","groups":["f25dqv3Y7Z0","tDZVQ1WtwpA","oRVt7g429ZO"]}},{"type":"Feature","id":"U8uqyDAu5bH","geometry":{"type":"Point","coordinates":[-12.4343,8.1597]},"properties":{"code":"OU_247056","name":"Govt. Hospital Moyamba","level":"4","parent":"USQdmvrHh1Q","parentGraph":"ImspTQPwCqd/jmIPBj66vD6/USQdmvrHh1Q","groups":["f25dqv3Y7Z0","tDZVQ1WtwpA","oRVt7g429ZO"]}},{"type":"Feature","id":"djMCTPYvltl","geometry":{"type":"Point","coordinates":[-11.1852,7.8754]},"properties":{"code":"OU_222716","name":"Govt. Hosp. Kenema","level":"4","parent":"KIUCimTXf8Q","parentGraph":"ImspTQPwCqd/kJq2mPyFEHo/KIUCimTXf8Q","groups":["f25dqv3Y7Z0","tDZVQ1WtwpA","oRVt7g429ZO"]}},{"type":"Feature","id":"STv4PP4Hiyl","geometry":{"type":"Point","coordinates":[-11.7191,7.3508]},"properties":{"code":"OU_260401","name":"Govt. Hosp. Pujehun","level":"4","parent":"QwMiPiME3bA","parentGraph":"ImspTQPwCqd/bL4ooGhyHRQ/QwMiPiME3bA","groups":["f25dqv3Y7Z0","tDZVQ1WtwpA","oRVt7g429ZO"]}},{"type":"Feature","id":"xmZNDeO0qCR","geometry":{"type":"Point","coordinates":[-10.5667,8.2797]},"properties":{"code":"OU_204901","name":"Govt. Medical Hospital","level":"4","parent":"cM2BKSrj9F9","parentGraph":"ImspTQPwCqd/jUb8gELQApl/cM2BKSrj9F9","groups":["GGghZsfu7qV","tDZVQ1WtwpA","oRVt7g429ZO"]}},{"type":"Feature","id":"lL2LBkhlsmV","geometry":{"type":"Point","coordinates":[-13.1842,8.4746]},"properties":{"code":"OU_278336","name":"Grassfield CHC","level":"4","parent":"C9uduqDZr9d","parentGraph":"ImspTQPwCqd/at6UHUQatSo/C9uduqDZr9d","groups":["f25dqv3Y7Z0","oRVt7g429ZO","CXw2yu5fodb"]}},{"type":"Feature","id":"ARAZtL7Bdpy","geometry":{"type":"Point","coordinates":[-11.2368,8.1251]},"properties":{"code":"OU_222684","name":"Guala MCHP","level":"4","parent":"QlCIp2S9NHs","parentGraph":"ImspTQPwCqd/kJq2mPyFEHo/QlCIp2S9NHs","groups":["f25dqv3Y7Z0","EYbopBOJWsW","oRVt7g429ZO"]}},{"type":"Feature","id":"oolcy5HBlMy","geometry":{"type":"Point","coordinates":[-13.26,8.3825]},"properties":{"code":"OU_278386","name":"Hamilton MCHP","level":"4","parent":"qtr8GGlm4gg","parentGraph":"ImspTQPwCqd/at6UHUQatSo/qtr8GGlm4gg","groups":["f25dqv3Y7Z0","EYbopBOJWsW","oRVt7g429ZO"]}},{"type":"Feature","id":"zQpYVEyAM2t","geometry":{"type":"Point","coordinates":[-13.1363,8.3836]},"properties":{"code":"OU_278377","name":"Hastings Health Centre","level":"4","parent":"qtr8GGlm4gg","parentGraph":"ImspTQPwCqd/at6UHUQatSo/qtr8GGlm4gg","groups":["f25dqv3Y7Z0","oRVt7g429ZO","CXw2yu5fodb"]}},{"type":"Feature","id":"UCwtaCrNUls","geometry":{"type":"Point","coordinates":[-11.5979,9.5007]},"properties":{"code":"OU_226260","name":"Heremakono MCHP","level":"4","parent":"EZPwuUTeIIG","parentGraph":"ImspTQPwCqd/qhqAxPSTUXp/EZPwuUTeIIG","groups":["f25dqv3Y7Z0","EYbopBOJWsW","oRVt7g429ZO"]}},{"type":"Feature","id":"LV2b3vaLRl1","geometry":{"type":"Point","coordinates":[-13.1691,8.4512]},"properties":{"code":"OU_278347","name":"Holy Mary Clinic","level":"4","parent":"C9uduqDZr9d","parentGraph":"ImspTQPwCqd/at6UHUQatSo/C9uduqDZr9d","groups":["f25dqv3Y7Z0","RXL3lPSK8oG"]}},{"type":"Feature","id":"J1x66stNjk2","geometry":{"type":"Point","coordinates":[-12.061,9.2366]},"properties":{"code":"OU_193227","name":"Hunduwa CHP","level":"4","parent":"eV4cuxniZgP","parentGraph":"ImspTQPwCqd/fdc6uOvgoji/eV4cuxniZgP","groups":["uYxK4wmcPqA","GGghZsfu7qV","oRVt7g429ZO"]}},{"type":"Feature","id":"W7ekX3gi0ut","geometry":{"type":"Point","coordinates":[-11.2411,8.542]},"properties":{"code":"OU_233333","name":"Jaiama Sewafe CHC","level":"4","parent":"qgQ49DH9a0v","parentGraph":"ImspTQPwCqd/Vth0fbpFcsO/qgQ49DH9a0v","groups":["f25dqv3Y7Z0","oRVt7g429ZO","CXw2yu5fodb"]}},{"type":"Feature","id":"t7bcrWLjL1m","geometry":{"type":"Point","coordinates":[-11.1446,7.6138]},"properties":{"code":"OU_222640","name":"Jao MCHP","level":"4","parent":"l7pFejMtUoF","parentGraph":"ImspTQPwCqd/kJq2mPyFEHo/l7pFejMtUoF","groups":["f25dqv3Y7Z0","EYbopBOJWsW","oRVt7g429ZO"]}},{"type":"Feature","id":"Umh4HKqqFp6","geometry":{"type":"Point","coordinates":[-11.4283,7.9197]},"properties":{"code":"OU_578","name":"Jembe CHC","level":"4","parent":"vWbkYPRmKyS","parentGraph":"ImspTQPwCqd/O6uvpzGd5pu/vWbkYPRmKyS","groups":["oRVt7g429ZO","CXw2yu5fodb"]}},{"type":"Feature","id":"QzPf0qKBU4n","geometry":{"type":"Point","coordinates":[-11.3911,7.0244]},"properties":{"code":"OU_260411","name":"Jendema CHC","level":"4","parent":"d9iMR1MpuIO","parentGraph":"ImspTQPwCqd/bL4ooGhyHRQ/d9iMR1MpuIO","groups":["f25dqv3Y7Z0","oRVt7g429ZO","CXw2yu5fodb"]}},{"type":"Feature","id":"cZtKKa9eJZ3","geometry":{"type":"Point","coordinates":[-13.2116,8.4827]},"properties":{"code":"OU_278353","name":"Jenner Wright Clinic","level":"4","parent":"C9uduqDZr9d","parentGraph":"ImspTQPwCqd/at6UHUQatSo/C9uduqDZr9d","groups":["f25dqv3Y7Z0","RXL3lPSK8oG","oRVt7g429ZO"]}},{"type":"Feature","id":"DplgrYeRIZ1","geometry":{"type":"Point","coordinates":[-13.0919,8.3952]},"properties":{"code":"OU_278375","name":"John Thorpe MCHP","level":"4","parent":"qtr8GGlm4gg","parentGraph":"ImspTQPwCqd/at6UHUQatSo/qtr8GGlm4gg","groups":["f25dqv3Y7Z0","EYbopBOJWsW","oRVt7g429ZO"]}},{"type":"Feature","id":"DvzKyuC0G4w","geometry":{"type":"Point","coordinates":[-10.7871,7.8767]},"properties":{"code":"OU_204872","name":"Jojoima CHC","level":"4","parent":"GE25DpSrqpB","parentGraph":"ImspTQPwCqd/jUb8gELQApl/GE25DpSrqpB","groups":["GGghZsfu7qV","oRVt7g429ZO","CXw2yu5fodb"]}},{"type":"Feature","id":"f7yRhIeFn1k","geometry":{"type":"Point","coordinates":[-10.5741,8.2761]},"properties":{"code":"OU_204926","name":"Jokibu MCHP","level":"4","parent":"pmxZm7klXBy","parentGraph":"ImspTQPwCqd/jUb8gELQApl/pmxZm7klXBy","groups":["GGghZsfu7qV","EYbopBOJWsW","oRVt7g429ZO"]}},{"type":"Feature","id":"RzgSFJ9E46G","geometry":{"type":"Point","coordinates":[-11.6279,7.8716]},"properties":{"code":"OU_579","name":"Jormu MCHP","level":"4","parent":"vWbkYPRmKyS","parentGraph":"ImspTQPwCqd/O6uvpzGd5pu/vWbkYPRmKyS","groups":["EYbopBOJWsW","oRVt7g429ZO"]}},{"type":"Feature","id":"V6QWyB0KqvP","geometry":{"type":"Point","coordinates":[-12.205,8.2552]},"properties":{"code":"OU_247001","name":"Juma MCHP","level":"4","parent":"nV3OkyzF4US","parentGraph":"ImspTQPwCqd/jmIPBj66vD6/nV3OkyzF4US","groups":["f25dqv3Y7Z0","EYbopBOJWsW","oRVt7g429ZO"]}},{"type":"Feature","id":"EQUwHqZOb5L","geometry":{"type":"Point","coordinates":[-12.1866,7.9578]},"properties":{"code":"OU_247020","name":"Kabaima MCHP","level":"4","parent":"RndxKqQGzUl","parentGraph":"ImspTQPwCqd/jmIPBj66vD6/RndxKqQGzUl","groups":["f25dqv3Y7Z0","EYbopBOJWsW","oRVt7g429ZO"]}},{"type":"Feature","id":"Xk2fvz4aTBU","geometry":{"type":"Point","coordinates":[-12.2472,7.6685]},"properties":{"code":"OU_197396","name":"Kabati CHP","level":"4","parent":"VCtF1DbspR5","parentGraph":"ImspTQPwCqd/lc3eMKXaEfw/VCtF1DbspR5","groups":["uYxK4wmcPqA","GGghZsfu7qV","oRVt7g429ZO"]}},{"type":"Feature","id":"TWMVxJANJeU","geometry":{"type":"Point","coordinates":[-12.2184,9.5834]},"properties":{"code":"OU_193289","name":"Kabba Ferry MCHP","level":"4","parent":"j43EZb15rjI","parentGraph":"ImspTQPwCqd/fdc6uOvgoji/j43EZb15rjI","groups":["GGghZsfu7qV","EYbopBOJWsW","oRVt7g429ZO"]}},{"type":"Feature","id":"wfGRNqXqf92","geometry":{"type":"Point","coordinates":[-11.9119,9.0001]},"properties":{"code":"OU_193274","name":"Kabonka MCHP","level":"4","parent":"XG8HGAbrbbL","parentGraph":"ImspTQPwCqd/fdc6uOvgoji/XG8HGAbrbbL","groups":["GGghZsfu7qV","EYbopBOJWsW","oRVt7g429ZO"]}},{"type":"Feature","id":"duGLGssecoD","geometry":{"type":"Point","coordinates":[-11.9536,9.0677]},"properties":{"code":"OU_193230","name":"Kagbaneh CHP","level":"4","parent":"fwH9ipvXde9","parentGraph":"ImspTQPwCqd/fdc6uOvgoji/fwH9ipvXde9","groups":["uYxK4wmcPqA","GGghZsfu7qV","oRVt7g429ZO"]}},{"type":"Feature","id":"TjZwphhxCuV","geometry":{"type":"Point","coordinates":[-12.1405,9.2205]},"properties":{"code":"OU_193225","name":"Kagbere CHC","level":"4","parent":"eV4cuxniZgP","parentGraph":"ImspTQPwCqd/fdc6uOvgoji/eV4cuxniZgP","groups":["GGghZsfu7qV","oRVt7g429ZO","CXw2yu5fodb"]}},{"type":"Feature","id":"OTlKtnhvEm1","geometry":{"type":"Point","coordinates":[-11.9913,9.0256]},"properties":{"code":"OU_193268","name":"Kagbo MCHP","level":"4","parent":"XG8HGAbrbbL","parentGraph":"ImspTQPwCqd/fdc6uOvgoji/XG8HGAbrbbL","groups":["GGghZsfu7qV","EYbopBOJWsW","oRVt7g429ZO"]}},{"type":"Feature","id":"Sglj9VCoQmc","geometry":{"type":"Point","coordinates":[-12.3115,9.5189]},"properties":{"code":"OU_193293","name":"Kagboray MCHP","level":"4","parent":"j43EZb15rjI","parentGraph":"ImspTQPwCqd/fdc6uOvgoji/j43EZb15rjI","groups":["GGghZsfu7qV","EYbopBOJWsW","oRVt7g429ZO"]}},{"type":"Feature","id":"KKoPh1lDd9j","geometry":{"type":"Point","coordinates":[-10.7213,8.6171]},"properties":{"code":"OU_233321","name":"Kainkordu CHC","level":"4","parent":"iGHlidSFdpu","parentGraph":"ImspTQPwCqd/Vth0fbpFcsO/iGHlidSFdpu","groups":["f25dqv3Y7Z0","oRVt7g429ZO","CXw2yu5fodb"]}},{"type":"Feature","id":"NJolnlvYgLr","geometry":{"type":"Point","coordinates":[-11.6664,9.6968]},"properties":{"code":"OU_226241","name":"Kakoya MCHP","level":"4","parent":"XrF5AvaGcuw","parentGraph":"ImspTQPwCqd/qhqAxPSTUXp/XrF5AvaGcuw","groups":["f25dqv3Y7Z0","EYbopBOJWsW","oRVt7g429ZO"]}},{"type":"Feature","id":"OGaAWQD6SYs","geometry":{"type":"Point","coordinates":[-13.0941,8.8831]},"properties":{"code":"OU_211265","name":"Kalainkay MCHP","level":"4","parent":"xGMGhjA3y6J","parentGraph":"ImspTQPwCqd/PMa2VCrupOd/xGMGhjA3y6J","groups":["GGghZsfu7qV","EYbopBOJWsW","oRVt7g429ZO"]}},{"type":"Feature","id":"aSxNNRxPuBP","geometry":{"type":"Point","coordinates":[-12.6562,9]},"properties":{"code":"OU_193278","name":"Kalangba CHC","level":"4","parent":"HWjrSuoNPte","parentGraph":"ImspTQPwCqd/TEQlaapDQoK/HWjrSuoNPte","groups":["GGghZsfu7qV","oRVt7g429ZO","CXw2yu5fodb"]}},{"type":"Feature","id":"UqXSUMp19FB","geometry":{"type":"Point","coordinates":[-13.1405,8.808]},"properties":{"code":"OU_254989","name":"Kalangba MCHP","level":"4","parent":"fRLX08WHWpL","parentGraph":"ImspTQPwCqd/TEQlaapDQoK/fRLX08WHWpL","groups":["f25dqv3Y7Z0","EYbopBOJWsW","oRVt7g429ZO"]}},{"type":"Feature","id":"mt47bcb0Rcj","geometry":{"type":"Point","coordinates":[-11.9619,9.157]},"properties":{"code":"OU_193231","name":"Kamabai CHC","level":"4","parent":"fwH9ipvXde9","parentGraph":"ImspTQPwCqd/fdc6uOvgoji/fwH9ipvXde9","groups":["GGghZsfu7qV","oRVt7g429ZO","CXw2yu5fodb"]}},{"type":"Feature","id":"OwHjzJEVEUN","geometry":{"type":"Point","coordinates":[-12.2949,9.4636]},"properties":{"code":"OU_193294","name":"Kamabaio MCHP","level":"4","parent":"j43EZb15rjI","parentGraph":"ImspTQPwCqd/fdc6uOvgoji/j43EZb15rjI","groups":["GGghZsfu7qV","EYbopBOJWsW","oRVt7g429ZO"]}},{"type":"Feature","id":"KnU2XHRvyiX","geometry":{"type":"Point","coordinates":[-12.2377,9.4981]},"properties":{"code":"OU_193292","name":"Kamakwie MCHP","level":"4","parent":"j43EZb15rjI","parentGraph":"ImspTQPwCqd/fdc6uOvgoji/j43EZb15rjI","groups":["GGghZsfu7qV","EYbopBOJWsW","oRVt7g429ZO"]}},{"type":"Feature","id":"HNv1aLPdMYb","geometry":{"type":"Point","coordinates":[-12.244,9.4009]},"properties":{"code":"OU_193242","name":"Kamalo CHC","level":"4","parent":"WXnNDWTiE9r","parentGraph":"ImspTQPwCqd/fdc6uOvgoji/WXnNDWTiE9r","groups":["GGghZsfu7qV","oRVt7g429ZO","CXw2yu5fodb"]}},{"type":"Feature","id":"bSj2UnYhTFb","geometry":{"type":"Point","coordinates":[-12.2061,9.2976]},"properties":{"code":"OU_193218","name":"Kamaranka CHC","level":"4","parent":"e1eIKM1GIF3","parentGraph":"ImspTQPwCqd/fdc6uOvgoji/e1eIKM1GIF3","groups":["GGghZsfu7qV","oRVt7g429ZO","CXw2yu5fodb"]}},{"type":"Feature","id":"ZxuSbAmsLCn","geometry":{"type":"Point","coordinates":[-11.9088,9.3181]},"properties":{"code":"OU_193235","name":"Kamasikie MCHP","level":"4","parent":"fwH9ipvXde9","parentGraph":"ImspTQPwCqd/fdc6uOvgoji/fwH9ipvXde9","groups":["GGghZsfu7qV","EYbopBOJWsW","oRVt7g429ZO"]}},{"type":"Feature","id":"wO4z5Aqo0hf","geometry":{"type":"Point","coordinates":[-12.3726,9.4863]},"properties":{"code":"OU_193290","name":"Kamawornie CHP","level":"4","parent":"j43EZb15rjI","parentGraph":"ImspTQPwCqd/fdc6uOvgoji/j43EZb15rjI","groups":["uYxK4wmcPqA","GGghZsfu7qV","oRVt7g429ZO"]}},{"type":"Feature","id":"mYMJHVqdBKt","geometry":{"type":"Point","coordinates":[-10.5738,8.2752]},"properties":{"code":"OU_204866","name":"Kambama CHP","level":"4","parent":"KSdZwrU7Hh6","parentGraph":"ImspTQPwCqd/jUb8gELQApl/KSdZwrU7Hh6","groups":["uYxK4wmcPqA","GGghZsfu7qV","oRVt7g429ZO"]}},{"type":"Feature","id":"UUgajyaViT7","geometry":{"type":"Point","coordinates":[-12.2948,9.3407]},"properties":{"code":"OU_193223","name":"Kambia CHP","level":"4","parent":"e1eIKM1GIF3","parentGraph":"ImspTQPwCqd/fdc6uOvgoji/e1eIKM1GIF3","groups":["uYxK4wmcPqA","GGghZsfu7qV","oRVt7g429ZO"]}},{"type":"Feature","id":"N7mHLD3ljYc","geometry":{"type":"Point","coordinates":[-12.9133,9.125]},"properties":{"code":"OU_211238","name":"Kambia GH","level":"4","parent":"QywkxFudXrC","parentGraph":"ImspTQPwCqd/PMa2VCrupOd/QywkxFudXrC","groups":["GGghZsfu7qV","oRVt7g429ZO"]}},{"type":"Feature","id":"kO9xe2HCovK","geometry":{"type":"Point","coordinates":[-12.5834,8.8169]},"properties":{"code":"OU_255064","name":"Kambia Makama CHP","level":"4","parent":"PrJQHI6q7w2","parentGraph":"ImspTQPwCqd/TEQlaapDQoK/PrJQHI6q7w2","groups":["uYxK4wmcPqA","f25dqv3Y7Z0","oRVt7g429ZO"]}},{"type":"Feature","id":"hHKKi9WNoBG","geometry":{"type":"Point","coordinates":[-10.5153,8.6827]},"properties":{"code":"OU_233346","name":"Kamiendor MCHP","level":"4","parent":"EjnIQNVAXGp","parentGraph":"ImspTQPwCqd/Vth0fbpFcsO/EjnIQNVAXGp","groups":["f25dqv3Y7Z0","EYbopBOJWsW","oRVt7g429ZO"]}},{"type":"Feature","id":"wUmVUKhnPuy","geometry":{"type":"Point","coordinates":[-12.287,8.0805]},"properties":{"code":"OU_247057","name":"Kangahun CHC","level":"4","parent":"USQdmvrHh1Q","parentGraph":"ImspTQPwCqd/jmIPBj66vD6/USQdmvrHh1Q","groups":["f25dqv3Y7Z0","oRVt7g429ZO","CXw2yu5fodb"]}},{"type":"Feature","id":"AGrsLyKWrVX","geometry":{"type":"Point","coordinates":[-11.6091,9.211]},"properties":{"code":"OU_226265","name":"Kania MCHP","level":"4","parent":"Lt8U7GVWvSR","parentGraph":"ImspTQPwCqd/qhqAxPSTUXp/Lt8U7GVWvSR","groups":["f25dqv3Y7Z0","EYbopBOJWsW","oRVt7g429ZO"]}},{"type":"Feature","id":"nDwbwJZQUYU","geometry":{"type":"Point","coordinates":[-11.8612,9.308]},"properties":{"code":"OU_193233","name":"Kanikay MCHP","level":"4","parent":"fwH9ipvXde9","parentGraph":"ImspTQPwCqd/fdc6uOvgoji/fwH9ipvXde9","groups":["GGghZsfu7qV","EYbopBOJWsW","oRVt7g429ZO"]}},{"type":"Feature","id":"CTOMXJg41hz","geometry":{"type":"Point","coordinates":[-11.9937,7.682]},"properties":{"code":"OU_642","name":"Kaniya MCHP","level":"4","parent":"BGGmAwx33dj","parentGraph":"ImspTQPwCqd/O6uvpzGd5pu/BGGmAwx33dj","groups":["GGghZsfu7qV","EYbopBOJWsW","oRVt7g429ZO"]}},{"type":"Feature","id":"KGN2jvZ0GJy","geometry":{"type":"Point","coordinates":[-12.4809,9.2225]},"properties":{"code":"OU_255000","name":"Kantia CHP","level":"4","parent":"HWjrSuoNPte","parentGraph":"ImspTQPwCqd/TEQlaapDQoK/HWjrSuoNPte","groups":["uYxK4wmcPqA","f25dqv3Y7Z0","oRVt7g429ZO"]}},{"type":"Feature","id":"GhDwjKv07iC","geometry":{"type":"Point","coordinates":[-11.9826,8.9869]},"properties":{"code":"OU_193271","name":"Kapethe MCHP","level":"4","parent":"XG8HGAbrbbL","parentGraph":"ImspTQPwCqd/fdc6uOvgoji/XG8HGAbrbbL","groups":["GGghZsfu7qV","EYbopBOJWsW","oRVt7g429ZO"]}},{"type":"Feature","id":"Crgx572DnXR","geometry":{"type":"Point","coordinates":[-12.2865,9.5165]},"properties":{"code":"OU_193287","name":"Kaponkie MCHP","level":"4","parent":"j43EZb15rjI","parentGraph":"ImspTQPwCqd/fdc6uOvgoji/j43EZb15rjI","groups":["GGghZsfu7qV","EYbopBOJWsW","oRVt7g429ZO"]}},{"type":"Feature","id":"YBZcWphXQ99","geometry":{"type":"Point","coordinates":[-12.5748,8.9166]},"properties":{"code":"OU_254981","name":"Kareneh MCHP","level":"4","parent":"ZiOVcrSjSYe","parentGraph":"ImspTQPwCqd/TEQlaapDQoK/ZiOVcrSjSYe","groups":["f25dqv3Y7Z0","EYbopBOJWsW","oRVt7g429ZO"]}},{"type":"Feature","id":"ObV5AR1NECl","geometry":{"type":"Point","coordinates":[-12.0134,9.1722]},"properties":{"code":"OU_193234","name":"Karina MCHP","level":"4","parent":"fwH9ipvXde9","parentGraph":"ImspTQPwCqd/fdc6uOvgoji/fwH9ipvXde9","groups":["GGghZsfu7qV","EYbopBOJWsW","oRVt7g429ZO"]}},{"type":"Feature","id":"K00jR5dmoFZ","geometry":{"type":"Point","coordinates":[-11.7632,7.2412]},"properties":{"code":"OU_260399","name":"Karlu CHC","level":"4","parent":"pk7bUK5c1Uf","parentGraph":"ImspTQPwCqd/bL4ooGhyHRQ/pk7bUK5c1Uf","groups":["f25dqv3Y7Z0","oRVt7g429ZO","CXw2yu5fodb"]}},{"type":"Feature","id":"OqBiNJjKQAu","geometry":{"type":"Point","coordinates":[-13.1876,8.6092]},"properties":{"code":"OU_255011","name":"Kasongha MCHP","level":"4","parent":"vn9KJsLyP5f","parentGraph":"ImspTQPwCqd/TEQlaapDQoK/vn9KJsLyP5f","groups":["f25dqv3Y7Z0","EYbopBOJWsW","oRVt7g429ZO"]}},{"type":"Feature","id":"cJkZLwhL8RP","geometry":{"type":"Point","coordinates":[-11.9198,7.537]},"properties":{"code":"OU_621","name":"Kasse MCHP","level":"4","parent":"zFDYIgyGmXG","parentGraph":"ImspTQPwCqd/O6uvpzGd5pu/zFDYIgyGmXG","groups":["GGghZsfu7qV","EYbopBOJWsW","oRVt7g429ZO"]}},{"type":"Feature","id":"pmzk0ho80aA","geometry":{"type":"Point","coordinates":[-11.9286,8.8772]},"properties":{"code":"OU_193298","name":"Kathanta Bana MCHP","level":"4","parent":"L8iA6eLwKNb","parentGraph":"ImspTQPwCqd/fdc6uOvgoji/L8iA6eLwKNb","groups":["GGghZsfu7qV","EYbopBOJWsW","oRVt7g429ZO"]}},{"type":"Feature","id":"NjyJYiIuKIG","geometry":{"type":"Point","coordinates":[-12.1699,9.546]},"properties":{"code":"OU_193291","name":"Kathanta Yimbor CHC","level":"4","parent":"j43EZb15rjI","parentGraph":"ImspTQPwCqd/fdc6uOvgoji/j43EZb15rjI","groups":["GGghZsfu7qV","oRVt7g429ZO","CXw2yu5fodb"]}},{"type":"Feature","id":"yEU926iVAJJ","geometry":{"type":"Point","coordinates":[-11.7623,9.0678]},"properties":{"code":"OU_268193","name":"Kathombo MCHP","level":"4","parent":"smoyi1iYNK6","parentGraph":"ImspTQPwCqd/eIQbndfxQMb/smoyi1iYNK6","groups":["f25dqv3Y7Z0","EYbopBOJWsW","oRVt7g429ZO"]}},{"type":"Feature","id":"qMbxFg9McOF","geometry":{"type":"Point","coordinates":[-12.2927,7.9614]},"properties":{"code":"OU_247050","name":"Kawaya MCHP","level":"4","parent":"jPidqyo7cpF","parentGraph":"ImspTQPwCqd/jmIPBj66vD6/jPidqyo7cpF","groups":["f25dqv3Y7Z0","EYbopBOJWsW","oRVt7g429ZO"]}},{"type":"Feature","id":"k8ZPul89UDm","geometry":{"type":"Point","coordinates":[-11.1599,8.8908]},"properties":{"code":"OU_233370","name":"Kayima CHC","level":"4","parent":"g5ptsn0SFX8","parentGraph":"ImspTQPwCqd/Vth0fbpFcsO/g5ptsn0SFX8","groups":["f25dqv3Y7Z0","oRVt7g429ZO","CXw2yu5fodb"]}},{"type":"Feature","id":"tEgxbwwrwUd","geometry":{"type":"Point","coordinates":[-11.9221,9.2126]},"properties":{"code":"OU_193232","name":"Kayongoro MCHP","level":"4","parent":"fwH9ipvXde9","parentGraph":"ImspTQPwCqd/fdc6uOvgoji/fwH9ipvXde9","groups":["GGghZsfu7qV","EYbopBOJWsW","oRVt7g429ZO"]}},{"type":"Feature","id":"QMnoFLTLpkY","geometry":{"type":"Point","coordinates":[-11.6616,9.0067]},"properties":{"code":"OU_268192","name":"Kemedugu MCHP","level":"4","parent":"smoyi1iYNK6","parentGraph":"ImspTQPwCqd/eIQbndfxQMb/smoyi1iYNK6","groups":["f25dqv3Y7Z0","EYbopBOJWsW","oRVt7g429ZO"]}},{"type":"Feature","id":"s7SLtx8wmRA","geometry":{"type":"Point","coordinates":[-12.1217,8.0863]},"properties":{"code":"OU_247024","name":"Kenema Gbandoma MCHP","level":"4","parent":"RndxKqQGzUl","parentGraph":"ImspTQPwCqd/jmIPBj66vD6/RndxKqQGzUl","groups":["f25dqv3Y7Z0","EYbopBOJWsW","oRVt7g429ZO"]}},{"type":"Feature","id":"UjusePB4jmP","geometry":{"type":"Point","coordinates":[-10.9879,8.6393]},"properties":{"code":"OU_233330","name":"Kensay MCHP","level":"4","parent":"M2qEv692lS6","parentGraph":"ImspTQPwCqd/Vth0fbpFcsO/M2qEv692lS6","groups":["f25dqv3Y7Z0","EYbopBOJWsW","oRVt7g429ZO"]}},{"type":"Feature","id":"lELJZCBxz7H","geometry":{"type":"Point","coordinates":[-13.1623,8.1742]},"properties":{"code":"OU_278394","name":"Kent CHP","level":"4","parent":"qtr8GGlm4gg","parentGraph":"ImspTQPwCqd/at6UHUQatSo/qtr8GGlm4gg","groups":["uYxK4wmcPqA","f25dqv3Y7Z0","oRVt7g429ZO"]}},{"type":"Feature","id":"lCEeiuv4NaB","geometry":{"type":"Point","coordinates":[-11.5914,9.0432]},"properties":{"code":"OU_268171","name":"Kholifaga MCHP","level":"4","parent":"r1RUyfVBkLp","parentGraph":"ImspTQPwCqd/eIQbndfxQMb/r1RUyfVBkLp","groups":["f25dqv3Y7Z0","EYbopBOJWsW","oRVt7g429ZO"]}},{"type":"Feature","id":"egv5Es0QlQP","geometry":{"type":"Point","coordinates":[-11.5052,7.8704]},"properties":{"code":"OU_580","name":"Kigbai MCHP","level":"4","parent":"vWbkYPRmKyS","parentGraph":"ImspTQPwCqd/O6uvpzGd5pu/vWbkYPRmKyS","groups":["EYbopBOJWsW","oRVt7g429ZO"]}},{"type":"Feature","id":"gei3Sqw8do7","geometry":{"type":"Point","coordinates":[-13.2482,8.4731]},"properties":{"code":"OU_278338","name":"KingHarman Rd. Hospital","level":"4","parent":"C9uduqDZr9d","parentGraph":"ImspTQPwCqd/at6UHUQatSo/C9uduqDZr9d","groups":["f25dqv3Y7Z0","tDZVQ1WtwpA","oRVt7g429ZO"]}},{"type":"Feature","id":"lekPjgUm0o2","geometry":{"type":"Point","coordinates":[-13.2549,8.4556]},"properties":{"code":"OU_278324","name":"Kingtom Police Hospital (MI Room)","level":"4","parent":"C9uduqDZr9d","parentGraph":"ImspTQPwCqd/at6UHUQatSo/C9uduqDZr9d","groups":["f25dqv3Y7Z0","tDZVQ1WtwpA","oRVt7g429ZO"]}},{"type":"Feature","id":"FclfbEFMcf3","geometry":{"type":"Point","coordinates":[-13.196,8.4713]},"properties":{"code":"OU_278340","name":"Kissy Health Centre","level":"4","parent":"C9uduqDZr9d","parentGraph":"ImspTQPwCqd/at6UHUQatSo/C9uduqDZr9d","groups":["f25dqv3Y7Z0","oRVt7g429ZO","CXw2yu5fodb"]}},{"type":"Feature","id":"XLiqwElsFHO","geometry":{"type":"Point","coordinates":[-12.9783,8.4025]},"properties":{"code":"OU_254968","name":"Kissy Koya MCHP","level":"4","parent":"pRHGAROvuyI","parentGraph":"ImspTQPwCqd/TEQlaapDQoK/pRHGAROvuyI","groups":["f25dqv3Y7Z0","EYbopBOJWsW","oRVt7g429ZO"]}},{"type":"Feature","id":"lmNWdmeOYmV","geometry":{"type":"Point","coordinates":[-13.0424,8.3371]},"properties":{"code":"OU_278396","name":"Kissy Town CHP","level":"4","parent":"qtr8GGlm4gg","parentGraph":"ImspTQPwCqd/at6UHUQatSo/qtr8GGlm4gg","groups":["uYxK4wmcPqA","f25dqv3Y7Z0","oRVt7g429ZO"]}},{"type":"Feature","id":"EQc3n1juPFn","geometry":{"type":"Point","coordinates":[-10.9919,8.7955]},"properties":{"code":"OU_233377","name":"Koakor MCHP","level":"4","parent":"TQkG0sX9nca","parentGraph":"ImspTQPwCqd/Vth0fbpFcsO/TQkG0sX9nca","groups":["f25dqv3Y7Z0","EYbopBOJWsW","oRVt7g429ZO"]}},{"type":"Feature","id":"SnCrOCRrxGX","geometry":{"type":"Point","coordinates":[-10.9945,8.6224]},"properties":{"code":"OU_233327","name":"Koakoyima CHC","level":"4","parent":"M2qEv692lS6","parentGraph":"ImspTQPwCqd/Vth0fbpFcsO/M2qEv692lS6","groups":["f25dqv3Y7Z0","oRVt7g429ZO","CXw2yu5fodb"]}},{"type":"Feature","id":"PwoQgMJNWbR","geometry":{"type":"Point","coordinates":[-10.5828,8.6151]},"properties":{"code":"OU_233313","name":"Koardu MCHP","level":"4","parent":"Zoy23SSHCPs","parentGraph":"ImspTQPwCqd/Vth0fbpFcsO/Zoy23SSHCPs","groups":["f25dqv3Y7Z0","EYbopBOJWsW","oRVt7g429ZO"]}},{"type":"Feature","id":"VF7LfO19vxS","geometry":{"type":"Point","coordinates":[-10.9094,8.9077]},"properties":{"code":"OU_233366","name":"Kochero MCHP","level":"4","parent":"g5ptsn0SFX8","parentGraph":"ImspTQPwCqd/Vth0fbpFcsO/g5ptsn0SFX8","groups":["f25dqv3Y7Z0","EYbopBOJWsW","oRVt7g429ZO"]}},{"type":"Feature","id":"zsqxu7ZZRpO","geometry":{"type":"Point","coordinates":[-10.9475,8.6488]},"properties":{"code":"OU_233384","name":"Koeyor MCHP","level":"4","parent":"TQkG0sX9nca","parentGraph":"ImspTQPwCqd/Vth0fbpFcsO/TQkG0sX9nca","groups":["f25dqv3Y7Z0","EYbopBOJWsW","oRVt7g429ZO"]}},{"type":"Feature","id":"OzjRQLn3G24","geometry":{"type":"Point","coordinates":[-10.965,8.648]},"properties":{"code":"OU_233387","name":"Koidu Govt. Hospital","level":"4","parent":"TQkG0sX9nca","parentGraph":"ImspTQPwCqd/Vth0fbpFcsO/TQkG0sX9nca","groups":["f25dqv3Y7Z0","tDZVQ1WtwpA","oRVt7g429ZO"]}},{"type":"Feature","id":"Ls2ESQONh9S","geometry":{"type":"Point","coordinates":[-10.9659,8.6481]},"properties":{"code":"OU_233376","name":"Koidu Under Five Clinic","level":"4","parent":"TQkG0sX9nca","parentGraph":"ImspTQPwCqd/Vth0fbpFcsO/TQkG0sX9nca","groups":["f25dqv3Y7Z0","RXL3lPSK8oG","oRVt7g429ZO"]}},{"type":"Feature","id":"DMxw0SASFih","geometry":{"type":"Point","coordinates":[-10.5736,8.2753]},"properties":{"code":"OU_204941","name":"Koindu CHC","level":"4","parent":"j0Mtr3xTMjM","parentGraph":"ImspTQPwCqd/jUb8gELQApl/j0Mtr3xTMjM","groups":["GGghZsfu7qV","oRVt7g429ZO","CXw2yu5fodb"]}},{"type":"Feature","id":"bqSIIRuZ1qj","geometry":{"type":"Point","coordinates":[-11.1676,9.8765]},"properties":{"code":"OU_226229","name":"Koindukura MCHP","level":"4","parent":"PaqugoqjRIj","parentGraph":"ImspTQPwCqd/qhqAxPSTUXp/PaqugoqjRIj","groups":["f25dqv3Y7Z0","EYbopBOJWsW","oRVt7g429ZO"]}},{"type":"Feature","id":"F2TAF765q1b","geometry":{"type":"Point","coordinates":[-11.1165,7.6297]},"properties":{"code":"OU_222747","name":"Kokoru CHP","level":"4","parent":"eROJsBwxQHt","parentGraph":"ImspTQPwCqd/kJq2mPyFEHo/eROJsBwxQHt","groups":["uYxK4wmcPqA","f25dqv3Y7Z0","oRVt7g429ZO"]}},{"type":"Feature","id":"m7fBMpmVpSM","geometry":{"type":"Point","coordinates":[-12.1982,8.7685]},"properties":{"code":"OU_193259","name":"Kolisokor MCHP","level":"4","parent":"lY93YpCxJqf","parentGraph":"ImspTQPwCqd/fdc6uOvgoji/lY93YpCxJqf","groups":["GGghZsfu7qV","EYbopBOJWsW","oRVt7g429ZO"]}},{"type":"Feature","id":"T62lSjsZe9n","geometry":{"type":"Point","coordinates":[-10.7089,8.7864]},"properties":{"code":"OU_233351","name":"Komba Yendeh CHP","level":"4","parent":"LhaAPLxdSFH","parentGraph":"ImspTQPwCqd/Vth0fbpFcsO/LhaAPLxdSFH","groups":["uYxK4wmcPqA","f25dqv3Y7Z0","oRVt7g429ZO"]}},{"type":"Feature","id":"cUltUneFSan","geometry":{"type":"Point","coordinates":[-12.0991,8.5396]},"properties":{"code":"OU_268165","name":"Komrabai Station MCHP","level":"4","parent":"fwxkctgmffZ","parentGraph":"ImspTQPwCqd/eIQbndfxQMb/fwxkctgmffZ","groups":["f25dqv3Y7Z0","EYbopBOJWsW","oRVt7g429ZO"]}},{"type":"Feature","id":"mhJQYk2Jwym","geometry":{"type":"Point","coordinates":[-11.1034,7.8955]},"properties":{"code":"OU_222713","name":"Konabu MCHP","level":"4","parent":"KIUCimTXf8Q","parentGraph":"ImspTQPwCqd/kJq2mPyFEHo/KIUCimTXf8Q","groups":["f25dqv3Y7Z0","EYbopBOJWsW","oRVt7g429ZO"]}},{"type":"Feature","id":"jkPHBqdn9SA","geometry":{"type":"Point","coordinates":[-12.1847,8.1909]},"properties":{"code":"OU_246992","name":"Konda CHP","level":"4","parent":"nV3OkyzF4US","parentGraph":"ImspTQPwCqd/jmIPBj66vD6/nV3OkyzF4US","groups":["uYxK4wmcPqA","f25dqv3Y7Z0","oRVt7g429ZO"]}},{"type":"Feature","id":"ZSBnWFBpPPJ","geometry":{"type":"Point","coordinates":[-10.5955,9.017]},"properties":{"code":"OU_233315","name":"Kondewakoro CHP","level":"4","parent":"FRxcUEwktoV","parentGraph":"ImspTQPwCqd/Vth0fbpFcsO/FRxcUEwktoV","groups":["uYxK4wmcPqA","f25dqv3Y7Z0","oRVt7g429ZO"]}},{"type":"Feature","id":"OynYyQiFu82","geometry":{"type":"Point","coordinates":[-11.5287,9.562]},"properties":{"code":"OU_226234","name":"Kondeya MCHP","level":"4","parent":"VGAFxBXz16y","parentGraph":"ImspTQPwCqd/qhqAxPSTUXp/VGAFxBXz16y","groups":["f25dqv3Y7Z0","EYbopBOJWsW","oRVt7g429ZO"]}},{"type":"Feature","id":"mokUyyg3olJ","geometry":{"type":"Point","coordinates":[-10.5736,8.2753]},"properties":{"code":"OU_204899","name":"Konjo CHP","level":"4","parent":"cM2BKSrj9F9","parentGraph":"ImspTQPwCqd/jUb8gELQApl/cM2BKSrj9F9","groups":["uYxK4wmcPqA","GGghZsfu7qV","oRVt7g429ZO"]}},{"type":"Feature","id":"d7hw1ababST","geometry":{"type":"Point","coordinates":[-11.0538,8.2703]},"properties":{"code":"OU_222670","name":"Konjo MCHP","level":"4","parent":"hdEuw2ugkVF","parentGraph":"ImspTQPwCqd/kJq2mPyFEHo/hdEuw2ugkVF","groups":["f25dqv3Y7Z0","EYbopBOJWsW","oRVt7g429ZO"]}},{"type":"Feature","id":"SVEfwJ0BGeD","geometry":{"type":"Point","coordinates":[-10.5736,8.2755]},"properties":{"code":"OU_204858","name":"Kono Bendu CHP","level":"4","parent":"bQiBfA2j5cw","parentGraph":"ImspTQPwCqd/jUb8gELQApl/bQiBfA2j5cw","groups":["uYxK4wmcPqA","GGghZsfu7qV","oRVt7g429ZO"]}},{"type":"Feature","id":"AQQCxQqDxLe","geometry":{"type":"Point","coordinates":[-12.66,9.38]},"properties":{"code":"OU_211224","name":"Konta CHP","level":"4","parent":"kbPmt60yi0L","parentGraph":"ImspTQPwCqd/PMa2VCrupOd/kbPmt60yi0L","groups":["uYxK4wmcPqA","GGghZsfu7qV","oRVt7g429ZO"]}},{"type":"Feature","id":"nornKUJmQqn","geometry":{"type":"Point","coordinates":[-12.5449,8.4743]},"properties":{"code":"OU_255033","name":"Konta-Line MCHP","level":"4","parent":"EfWCa0Cc8WW","parentGraph":"ImspTQPwCqd/TEQlaapDQoK/EfWCa0Cc8WW","groups":["f25dqv3Y7Z0","EYbopBOJWsW","oRVt7g429ZO"]}},{"type":"Feature","id":"lwHs72tP6Kh","geometry":{"type":"Point","coordinates":[-11.1828,7.8991]},"properties":{"code":"OU_222701","name":"Kordebotehun MCHP","level":"4","parent":"KIUCimTXf8Q","parentGraph":"ImspTQPwCqd/kJq2mPyFEHo/KIUCimTXf8Q","groups":["f25dqv3Y7Z0","EYbopBOJWsW","oRVt7g429ZO"]}},{"type":"Feature","id":"hCm2Nh7C8BW","geometry":{"type":"Point","coordinates":[-12.4627,8.0525]},"properties":{"code":"OU_247060","name":"Korgbotuma MCHP","level":"4","parent":"USQdmvrHh1Q","parentGraph":"ImspTQPwCqd/jmIPBj66vD6/USQdmvrHh1Q","groups":["f25dqv3Y7Z0","EYbopBOJWsW","oRVt7g429ZO"]}},{"type":"Feature","id":"mwN7QuEfT8m","geometry":{"type":"Point","coordinates":[-11.58991,8.26653]},"properties":{"code":"OU_820","name":"Koribondo CHC","level":"4","parent":"daJPPxtIrQn","parentGraph":"ImspTQPwCqd/O6uvpzGd5pu/daJPPxtIrQn","groups":["GGghZsfu7qV","oRVt7g429ZO","CXw2yu5fodb"]}},{"type":"Feature","id":"S9QckzKX6Lg","geometry":{"type":"Point","coordinates":[-11.0083,7.9827]},"properties":{"code":"OU_197393","name":"Kormende MCHP","level":"4","parent":"VCtF1DbspR5","parentGraph":"ImspTQPwCqd/lc3eMKXaEfw/VCtF1DbspR5","groups":["GGghZsfu7qV","EYbopBOJWsW","oRVt7g429ZO"]}},{"type":"Feature","id":"CSDGDOa7wHd","geometry":{"type":"Point","coordinates":[-11.0719,7.8652]},"properties":{"code":"OU_222736","name":"Kornia MCHP","level":"4","parent":"myQ4q1W6B4y","parentGraph":"ImspTQPwCqd/kJq2mPyFEHo/myQ4q1W6B4y","groups":["f25dqv3Y7Z0","EYbopBOJWsW","oRVt7g429ZO"]}},{"type":"Feature","id":"z6v73gowbuM","geometry":{"type":"Point","coordinates":[-12.1149,9.1225]},"properties":{"code":"OU_193284","name":"Kortohun CHP","level":"4","parent":"BXJdOLvUrZB","parentGraph":"ImspTQPwCqd/fdc6uOvgoji/BXJdOLvUrZB","groups":["uYxK4wmcPqA","GGghZsfu7qV","oRVt7g429ZO"]}},{"type":"Feature","id":"jr5hIZcJBXB","geometry":{"type":"Point","coordinates":[-11.5706,7.4362]},"properties":{"code":"OU_260426","name":"Kowama MCHP","level":"4","parent":"eNtRuQrrZeo","parentGraph":"ImspTQPwCqd/bL4ooGhyHRQ/eNtRuQrrZeo","groups":["f25dqv3Y7Z0","EYbopBOJWsW","oRVt7g429ZO"]}},{"type":"Feature","id":"brnL0W3Fbsj","geometry":{"type":"Point","coordinates":[-13.035,8.9658]},"properties":{"code":"OU_211244","name":"Koya MCHP","level":"4","parent":"r06ohri9wA9","parentGraph":"ImspTQPwCqd/PMa2VCrupOd/r06ohri9wA9","groups":["GGghZsfu7qV","EYbopBOJWsW","oRVt7g429ZO"]}},{"type":"Feature","id":"TljiT6C5D0J","geometry":{"type":"Point","coordinates":[-11.1959,7.7551]},"properties":{"code":"OU_222740","name":"Kpandebu CHC","level":"4","parent":"myQ4q1W6B4y","parentGraph":"ImspTQPwCqd/kJq2mPyFEHo/myQ4q1W6B4y","groups":["f25dqv3Y7Z0","oRVt7g429ZO","CXw2yu5fodb"]}},{"type":"Feature","id":"PFZbQjwty2n","geometry":{"type":"Point","coordinates":[-11.0713,8.2141]},"properties":{"code":"OU_222653","name":"Kpandebu MCHP","level":"4","parent":"hdEuw2ugkVF","parentGraph":"ImspTQPwCqd/kJq2mPyFEHo/hdEuw2ugkVF","groups":["f25dqv3Y7Z0","EYbopBOJWsW","oRVt7g429ZO"]}},{"type":"Feature","id":"So2b8zJfcMa","geometry":{"type":"Point","coordinates":[-11.1774,7.8679]},"properties":{"code":"OU_222703","name":"Kpayama 1 MCHP","level":"4","parent":"KIUCimTXf8Q","parentGraph":"ImspTQPwCqd/kJq2mPyFEHo/KIUCimTXf8Q","groups":["f25dqv3Y7Z0","EYbopBOJWsW","oRVt7g429ZO"]}},{"type":"Feature","id":"geVF87N7qTw","geometry":{"type":"Point","coordinates":[-11.1796,7.8657]},"properties":{"code":"OU_222719","name":"Kpayama 2 MCHP","level":"4","parent":"KIUCimTXf8Q","parentGraph":"ImspTQPwCqd/kJq2mPyFEHo/KIUCimTXf8Q","groups":["f25dqv3Y7Z0","EYbopBOJWsW","oRVt7g429ZO"]}},{"type":"Feature","id":"RTixJpRqS4C","geometry":{"type":"Point","coordinates":[-11.9917,7.82]},"properties":{"code":"OU_639","name":"Kpetema CHP","level":"4","parent":"BGGmAwx33dj","parentGraph":"ImspTQPwCqd/O6uvpzGd5pu/BGGmAwx33dj","groups":["uYxK4wmcPqA","GGghZsfu7qV","oRVt7g429ZO"]}},{"type":"Feature","id":"GIRLSZ1tB00","geometry":{"type":"Point","coordinates":[-10.6539,8.9599]},"properties":{"code":"OU_233316","name":"Kpetema CHP (Toli)","level":"4","parent":"FRxcUEwktoV","parentGraph":"ImspTQPwCqd/Vth0fbpFcsO/FRxcUEwktoV","groups":["uYxK4wmcPqA","f25dqv3Y7Z0","oRVt7g429ZO"]}},{"type":"Feature","id":"kDxbU1uSBFh","geometry":{"type":"Point","coordinates":[-11.1857,7.856]},"properties":{"code":"OU_222698","name":"Kpetema MCHP","level":"4","parent":"KIUCimTXf8Q","parentGraph":"ImspTQPwCqd/kJq2mPyFEHo/KIUCimTXf8Q","groups":["f25dqv3Y7Z0","EYbopBOJWsW","oRVt7g429ZO"]}},{"type":"Feature","id":"mGmu0GJ5neg","geometry":{"type":"Point","coordinates":[-11.8153,7.7346]},"properties":{"code":"OU_1058","name":"Kpetewoma CHP","level":"4","parent":"kU8vhUkAGaT","parentGraph":"ImspTQPwCqd/O6uvpzGd5pu/kU8vhUkAGaT","groups":["uYxK4wmcPqA","GGghZsfu7qV","oRVt7g429ZO"]}},{"type":"Feature","id":"bM4Ky73uMao","geometry":{"type":"Point","coordinates":[-11.7344,7.9579]},"properties":{"code":"OU_172172","name":"Kpolies Clinic","level":"4","parent":"U6Kr7Gtpidn","parentGraph":"ImspTQPwCqd/O6uvpzGd5pu/U6Kr7Gtpidn","groups":["MAs88nJc9nL","GGghZsfu7qV","RXL3lPSK8oG","oRVt7g429ZO"]}},{"type":"Feature","id":"QkczRcSeNck","geometry":{"type":"Point","coordinates":[-11.5709,7.3429]},"properties":{"code":"OU_260421","name":"Kpowubu MCHP","level":"4","parent":"eNtRuQrrZeo","parentGraph":"ImspTQPwCqd/bL4ooGhyHRQ/eNtRuQrrZeo","groups":["f25dqv3Y7Z0","EYbopBOJWsW","oRVt7g429ZO"]}},{"type":"Feature","id":"S7KwVLbFlss","geometry":{"type":"Point","coordinates":[-11.7436,8.1919]},"properties":{"code":"OU_1144","name":"Kpuabu MCHP","level":"4","parent":"npWGUj37qDe","parentGraph":"ImspTQPwCqd/O6uvpzGd5pu/npWGUj37qDe","groups":["GGghZsfu7qV","EYbopBOJWsW","oRVt7g429ZO"]}},{"type":"Feature","id":"sM0Us0NkSez","geometry":{"type":"Point","coordinates":[-13.2407,8.4868]},"properties":{"code":"OU_278359","name":"Kroo Bay CHC","level":"4","parent":"C9uduqDZr9d","parentGraph":"ImspTQPwCqd/at6UHUQatSo/C9uduqDZr9d","groups":["f25dqv3Y7Z0","oRVt7g429ZO","CXw2yu5fodb"]}},{"type":"Feature","id":"M9JyYBZTqR7","geometry":{"type":"Point","coordinates":[-12.6704,9.3884]},"properties":{"code":"OU_211223","name":"Kukuna CHP","level":"4","parent":"kbPmt60yi0L","parentGraph":"ImspTQPwCqd/PMa2VCrupOd/kbPmt60yi0L","groups":["uYxK4wmcPqA","GGghZsfu7qV","oRVt7g429ZO"]}},{"type":"Feature","id":"bJ0VSATHwO2","geometry":{"type":"Point","coordinates":[-12.3205,8.4387]},"properties":{"code":"OU_268233","name":"Kumrabai Yoni MCHP","level":"4","parent":"NNE0YMCDZkO","parentGraph":"ImspTQPwCqd/eIQbndfxQMb/NNE0YMCDZkO","groups":["f25dqv3Y7Z0","EYbopBOJWsW","oRVt7g429ZO"]}},{"type":"Feature","id":"jYPY8mT8gn6","geometry":{"type":"Point","coordinates":[-10.6815,8.8989]},"properties":{"code":"OU_233353","name":"Kundundu MCHP","level":"4","parent":"LhaAPLxdSFH","parentGraph":"ImspTQPwCqd/Vth0fbpFcsO/LhaAPLxdSFH","groups":["f25dqv3Y7Z0","EYbopBOJWsW","oRVt7g429ZO"]}},{"type":"Feature","id":"tdhB1JXYBx2","geometry":{"type":"Point","coordinates":[-12.0791,8.9542]},"properties":{"code":"OU_193254","name":"Kunsho CHP","level":"4","parent":"lY93YpCxJqf","parentGraph":"ImspTQPwCqd/fdc6uOvgoji/lY93YpCxJqf","groups":["uYxK4wmcPqA","GGghZsfu7qV","oRVt7g429ZO"]}},{"type":"Feature","id":"WUQrS4Yqmoy","geometry":{"type":"Point","coordinates":[-12.8726,8.4754]},"properties":{"code":"OU_254962","name":"Kuranko MCHP","level":"4","parent":"pRHGAROvuyI","parentGraph":"ImspTQPwCqd/TEQlaapDQoK/pRHGAROvuyI","groups":["f25dqv3Y7Z0","EYbopBOJWsW","oRVt7g429ZO"]}},{"type":"Feature","id":"PcADvhvcaI2","geometry":{"type":"Point","coordinates":[-13.1436,8.928]},"properties":{"code":"OU_211253","name":"Kychom CHC","level":"4","parent":"r06ohri9wA9","parentGraph":"ImspTQPwCqd/PMa2VCrupOd/r06ohri9wA9","groups":["GGghZsfu7qV","oRVt7g429ZO","CXw2yu5fodb"]}},{"type":"Feature","id":"yg7uxUol97F","geometry":{"type":"Point","coordinates":[-12.1062,9.4544]},"properties":{"code":"OU_193243","name":"Laiya CHP","level":"4","parent":"WXnNDWTiE9r","parentGraph":"ImspTQPwCqd/fdc6uOvgoji/WXnNDWTiE9r","groups":["uYxK4wmcPqA","GGghZsfu7qV","oRVt7g429ZO"]}},{"type":"Feature","id":"K0d08d3sUOv","geometry":{"type":"Point","coordinates":[-13.2632,8.3972]},"properties":{"code":"OU_278378","name":"Lakka Hospital","level":"4","parent":"qtr8GGlm4gg","parentGraph":"ImspTQPwCqd/at6UHUQatSo/qtr8GGlm4gg","groups":["f25dqv3Y7Z0","tDZVQ1WtwpA","oRVt7g429ZO"]}},{"type":"Feature","id":"iOA3z6Y3cq5","geometry":{"type":"Point","coordinates":[-11.1054,8.0538]},"properties":{"code":"OU_222699","name":"Largo CHC","level":"4","parent":"KIUCimTXf8Q","parentGraph":"ImspTQPwCqd/kJq2mPyFEHo/KIUCimTXf8Q","groups":["f25dqv3Y7Z0","oRVt7g429ZO","CXw2yu5fodb"]}},{"type":"Feature","id":"X7ZVgRPt31q","geometry":{"type":"Point","coordinates":[-12.0149,7.6424]},"properties":{"code":"OU_197426","name":"Lawana MCHP","level":"4","parent":"aWQTfvgPA5v","parentGraph":"ImspTQPwCqd/lc3eMKXaEfw/aWQTfvgPA5v","groups":["GGghZsfu7qV","EYbopBOJWsW","oRVt7g429ZO"]}},{"type":"Feature","id":"rs87nYgwbKv","geometry":{"type":"Point","coordinates":[-11.6759,9.4663]},"properties":{"code":"OU_226266","name":"Lengekoro MCHP","level":"4","parent":"Lt8U7GVWvSR","parentGraph":"ImspTQPwCqd/qhqAxPSTUXp/Lt8U7GVWvSR","groups":["f25dqv3Y7Z0","EYbopBOJWsW","oRVt7g429ZO"]}},{"type":"Feature","id":"Bf9R1R91mw4","geometry":{"type":"Point","coordinates":[-10.7263,8.0369]},"properties":{"code":"OU_204911","name":"Levuma CHP","level":"4","parent":"yu4N82FFeLm","parentGraph":"ImspTQPwCqd/jUb8gELQApl/yu4N82FFeLm","groups":["uYxK4wmcPqA","GGghZsfu7qV","oRVt7g429ZO"]}},{"type":"Feature","id":"BgOhMcH9bxq","geometry":{"type":"Point","coordinates":[-12.372,8.1168]},"properties":{"code":"OU_247065","name":"Levuma Kai MCHP","level":"4","parent":"USQdmvrHh1Q","parentGraph":"ImspTQPwCqd/jmIPBj66vD6/USQdmvrHh1Q","groups":["f25dqv3Y7Z0","EYbopBOJWsW","oRVt7g429ZO"]}},{"type":"Feature","id":"tBRDdxfKbMx","geometry":{"type":"Point","coordinates":[-11.6021,6.989]},"properties":{"code":"OU_260442","name":"Liya MCHP","level":"4","parent":"zSNUViKdkk3","parentGraph":"ImspTQPwCqd/bL4ooGhyHRQ/zSNUViKdkk3","groups":["f25dqv3Y7Z0","EYbopBOJWsW","oRVt7g429ZO"]}},{"type":"Feature","id":"hIpcmjLrDDW","geometry":{"type":"Point","coordinates":[-11.3401,7.8679]},"properties":{"code":"OU_222620","name":"London (Blama) MCHP","level":"4","parent":"vzup1f6ynON","parentGraph":"ImspTQPwCqd/kJq2mPyFEHo/vzup1f6ynON","groups":["f25dqv3Y7Z0","EYbopBOJWsW","oRVt7g429ZO"]}},{"type":"Feature","id":"Z7UAnjpK74g","geometry":{"type":"Point","coordinates":[-13.1963,8.4619]},"properties":{"code":"OU_278344","name":"Looking Town MCHP","level":"4","parent":"C9uduqDZr9d","parentGraph":"ImspTQPwCqd/at6UHUQatSo/C9uduqDZr9d","groups":["f25dqv3Y7Z0","EYbopBOJWsW","oRVt7g429ZO"]}},{"type":"Feature","id":"IW3guWF3uvF","geometry":{"type":"Point","coordinates":[-11.2439,7.6746]},"properties":{"code":"OU_222732","name":"Loppa CHP","level":"4","parent":"myQ4q1W6B4y","parentGraph":"ImspTQPwCqd/kJq2mPyFEHo/myQ4q1W6B4y","groups":["uYxK4wmcPqA","f25dqv3Y7Z0","oRVt7g429ZO"]}},{"type":"Feature","id":"cgqkFdShPzg","geometry":{"type":"Point","coordinates":[-12.0437,8.8868]},"properties":{"code":"OU_193213","name":"Loreto Clinic","level":"4","parent":"KKkLOTpMXGV","parentGraph":"ImspTQPwCqd/fdc6uOvgoji/KKkLOTpMXGV","groups":["GGghZsfu7qV","RXL3lPSK8oG","oRVt7g429ZO"]}},{"type":"Feature","id":"IlMQTFvcq9r","geometry":{"type":"Point","coordinates":[-10.9907,8.2187]},"properties":{"code":"OU_222656","name":"Lowoma CHC","level":"4","parent":"hdEuw2ugkVF","parentGraph":"ImspTQPwCqd/kJq2mPyFEHo/hdEuw2ugkVF","groups":["f25dqv3Y7Z0","oRVt7g429ZO","CXw2yu5fodb"]}},{"type":"Feature","id":"PqlNXedmh7u","geometry":{"type":"Point","coordinates":[-13.2589,8.4514]},"properties":{"code":"OU_278358","name":"Lumley Hospital","level":"4","parent":"C9uduqDZr9d","parentGraph":"ImspTQPwCqd/at6UHUQatSo/C9uduqDZr9d","groups":["f25dqv3Y7Z0","tDZVQ1WtwpA","oRVt7g429ZO"]}},{"type":"Feature","id":"gsypzntLahf","geometry":{"type":"Point","coordinates":[-13.2042,8.628]},"properties":{"code":"OU_255010","name":"Lungi Govt. Hospital, Port Loko","level":"4","parent":"vn9KJsLyP5f","parentGraph":"ImspTQPwCqd/TEQlaapDQoK/vn9KJsLyP5f","groups":["f25dqv3Y7Z0","tDZVQ1WtwpA","oRVt7g429ZO"]}},{"type":"Feature","id":"ntQSuMb7J21","geometry":{"type":"Point","coordinates":[-13.16,8.55]},"properties":{"code":"OU_255008","name":"Lungi Town MCHP","level":"4","parent":"vn9KJsLyP5f","parentGraph":"ImspTQPwCqd/TEQlaapDQoK/vn9KJsLyP5f","groups":["f25dqv3Y7Z0","EYbopBOJWsW","oRVt7g429ZO"]}},{"type":"Feature","id":"q56204kKXgZ","geometry":{"type":"Point","coordinates":[-12.5313,8.6821]},"properties":{"code":"OU_255057","name":"Lunsar CHC","level":"4","parent":"RWvG1aFrr0r","parentGraph":"ImspTQPwCqd/TEQlaapDQoK/RWvG1aFrr0r","groups":["f25dqv3Y7Z0","oRVt7g429ZO","CXw2yu5fodb"]}},{"type":"Feature","id":"xRsoZIRmnt4","geometry":{"type":"Point","coordinates":[-12.2494,8.5395]},"properties":{"code":"OU_268164","name":"Mabai MCHP","level":"4","parent":"fwxkctgmffZ","parentGraph":"ImspTQPwCqd/eIQbndfxQMb/fwxkctgmffZ","groups":["f25dqv3Y7Z0","EYbopBOJWsW","oRVt7g429ZO"]}},{"type":"Feature","id":"MiYhwDprCCA","geometry":{"type":"Point","coordinates":[-13.2265,8.4905]},"properties":{"code":"OU_278329","name":"Mabella MCHP","level":"4","parent":"C9uduqDZr9d","parentGraph":"ImspTQPwCqd/at6UHUQatSo/C9uduqDZr9d","groups":["f25dqv3Y7Z0","EYbopBOJWsW","oRVt7g429ZO"]}},{"type":"Feature","id":"taKiTcaf05H","geometry":{"type":"Point","coordinates":[-11.98737,9.44655]},"properties":{"code":"OU_193250","name":"Mabenteh Community Hospital","level":"4","parent":"lY93YpCxJqf","parentGraph":"ImspTQPwCqd/fdc6uOvgoji/lY93YpCxJqf","groups":["GGghZsfu7qV","tDZVQ1WtwpA","oRVt7g429ZO"]}},{"type":"Feature","id":"PybxeRWVSrI","geometry":{"type":"Point","coordinates":[-12.0543,8.8214]},"properties":{"code":"OU_193210","name":"Mabolleh MCHP","level":"4","parent":"KKkLOTpMXGV","parentGraph":"ImspTQPwCqd/fdc6uOvgoji/KKkLOTpMXGV","groups":["GGghZsfu7qV","EYbopBOJWsW","oRVt7g429ZO"]}},{"type":"Feature","id":"fmkqsEx6MRo","geometry":{"type":"Point","coordinates":[-12.7381,8.5531]},"properties":{"code":"OU_254961","name":"Mabora MCHP","level":"4","parent":"pRHGAROvuyI","parentGraph":"ImspTQPwCqd/TEQlaapDQoK/pRHGAROvuyI","groups":["f25dqv3Y7Z0","EYbopBOJWsW","oRVt7g429ZO"]}},{"type":"Feature","id":"ApLCxUmnT6q","geometry":{"type":"Point","coordinates":[-12.0682,8.6506]},"properties":{"code":"OU_268154","name":"Maborie MCHP","level":"4","parent":"PQZJPIpTepd","parentGraph":"ImspTQPwCqd/eIQbndfxQMb/PQZJPIpTepd","groups":["f25dqv3Y7Z0","EYbopBOJWsW","oRVt7g429ZO"]}},{"type":"Feature","id":"TmCsvdJLHoX","geometry":{"type":"Point","coordinates":[-12.2384,9.1345]},"properties":{"code":"OU_193195","name":"Mabunduka CHC","level":"4","parent":"UhHipWG7J8b","parentGraph":"ImspTQPwCqd/fdc6uOvgoji/UhHipWG7J8b","groups":["GGghZsfu7qV","oRVt7g429ZO","CXw2yu5fodb"]}},{"type":"Feature","id":"rIgJX4N0DGZ","geometry":{"type":"Point","coordinates":[-13.2283,8.4795]},"properties":{"code":"OU_278356","name":"Macauley Satellite Hospital","level":"4","parent":"C9uduqDZr9d","parentGraph":"ImspTQPwCqd/at6UHUQatSo/C9uduqDZr9d","groups":["f25dqv3Y7Z0","tDZVQ1WtwpA","oRVt7g429ZO"]}},{"type":"Feature","id":"FupvWBUFXr7","geometry":{"type":"Point","coordinates":[-13.0796,8.2837]},"properties":{"code":"OU_278387","name":"MacDonald MCHP","level":"4","parent":"qtr8GGlm4gg","parentGraph":"ImspTQPwCqd/at6UHUQatSo/qtr8GGlm4gg","groups":["f25dqv3Y7Z0","EYbopBOJWsW","oRVt7g429ZO"]}},{"type":"Feature","id":"pJj2r2HElLE","geometry":{"type":"Point","coordinates":[-12.3182,9.3577]},"properties":{"code":"OU_193244","name":"Madina Fullah CHP","level":"4","parent":"WXnNDWTiE9r","parentGraph":"ImspTQPwCqd/fdc6uOvgoji/WXnNDWTiE9r","groups":["uYxK4wmcPqA","GGghZsfu7qV","oRVt7g429ZO"]}},{"type":"Feature","id":"SZrG4yHGV4x","geometry":{"type":"Point","coordinates":[-11.9492,7.4637]},"properties":{"code":"OU_226223","name":"Madina Gbonkobor MCHP","level":"4","parent":"iUauWFeH8Qp","parentGraph":"ImspTQPwCqd/lc3eMKXaEfw/iUauWFeH8Qp","groups":["f25dqv3Y7Z0","EYbopBOJWsW","oRVt7g429ZO"]}},{"type":"Feature","id":"I48Qu6R0sGm","geometry":{"type":"Point","coordinates":[-12.0513,9.094]},"properties":{"code":"OU_193283","name":"Madina Loko CHP","level":"4","parent":"BXJdOLvUrZB","parentGraph":"ImspTQPwCqd/fdc6uOvgoji/BXJdOLvUrZB","groups":["uYxK4wmcPqA","GGghZsfu7qV","oRVt7g429ZO"]}},{"type":"Feature","id":"kFScvrF3wPo","geometry":{"type":"Point","coordinates":[-12.63086,9.15972]},"properties":{"code":"OU_255022","name":"Madina MCHP","level":"4","parent":"Pc3JTyqnsmL","parentGraph":"ImspTQPwCqd/TEQlaapDQoK/Pc3JTyqnsmL","groups":["f25dqv3Y7Z0","EYbopBOJWsW","oRVt7g429ZO"]}},{"type":"Feature","id":"QBRQnWPRO3V","geometry":{"type":"Point","coordinates":[-10.5735,8.2753]},"properties":{"code":"OU_204888","name":"Madopolahun MCHP","level":"4","parent":"hjpHnHZIniP","parentGraph":"ImspTQPwCqd/jUb8gELQApl/hjpHnHZIniP","groups":["GGghZsfu7qV","EYbopBOJWsW","oRVt7g429ZO"]}},{"type":"Feature","id":"OjRCvy71kAL","geometry":{"type":"Point","coordinates":[-12.9192,9.2171]},"properties":{"code":"OU_211215","name":"Mafaray CHP","level":"4","parent":"qIRCo0MfuGb","parentGraph":"ImspTQPwCqd/PMa2VCrupOd/qIRCo0MfuGb","groups":["uYxK4wmcPqA","GGghZsfu7qV","oRVt7g429ZO"]}},{"type":"Feature","id":"simyC07XwnS","geometry":{"type":"Point","coordinates":[-12.8051,8.7137]},"properties":{"code":"OU_254953","name":"Maforay MCHP","level":"4","parent":"JdqfYTIFZXN","parentGraph":"ImspTQPwCqd/TEQlaapDQoK/JdqfYTIFZXN","groups":["f25dqv3Y7Z0","EYbopBOJWsW","oRVt7g429ZO"]}},{"type":"Feature","id":"L3GgannGGKl","geometry":{"type":"Point","coordinates":[-13.0747,9.0051]},"properties":{"code":"OU_211251","name":"Mafufuneh MCHP","level":"4","parent":"r06ohri9wA9","parentGraph":"ImspTQPwCqd/PMa2VCrupOd/r06ohri9wA9","groups":["GGghZsfu7qV","EYbopBOJWsW","oRVt7g429ZO"]}},{"type":"Feature","id":"XjpmsLNjyrz","geometry":{"type":"Point","coordinates":[-12.5973,8.4569]},"properties":{"code":"OU_268248","name":"Magbaft MCHP","level":"4","parent":"NNE0YMCDZkO","parentGraph":"ImspTQPwCqd/eIQbndfxQMb/NNE0YMCDZkO","groups":["f25dqv3Y7Z0","EYbopBOJWsW","oRVt7g429ZO"]}},{"type":"Feature","id":"cTU2WmWcJKx","geometry":{"type":"Point","coordinates":[-12.2106,8.9155]},"properties":{"code":"OU_193252","name":"Magbaikoli MCHP","level":"4","parent":"lY93YpCxJqf","parentGraph":"ImspTQPwCqd/fdc6uOvgoji/lY93YpCxJqf","groups":["GGghZsfu7qV","EYbopBOJWsW","oRVt7g429ZO"]}},{"type":"Feature","id":"DIQl5jJ17IE","geometry":{"type":"Point","coordinates":[-12.34627,8.92733]},"properties":{"code":"OU_193306","name":"Magbaingba MCHP","level":"4","parent":"hRZOIgQ0O1m","parentGraph":"ImspTQPwCqd/fdc6uOvgoji/hRZOIgQ0O1m","groups":["GGghZsfu7qV","EYbopBOJWsW","oRVt7g429ZO"]}},{"type":"Feature","id":"sFgNRYS5pBo","geometry":{"type":"Point","coordinates":[-12.424,8.4199]},"properties":{"code":"OU_268152","name":"Magbass MCHP","level":"4","parent":"PQZJPIpTepd","parentGraph":"ImspTQPwCqd/eIQbndfxQMb/PQZJPIpTepd","groups":["f25dqv3Y7Z0","EYbopBOJWsW","oRVt7g429ZO"]}},{"type":"Feature","id":"UJ80rknbJtm","geometry":{"type":"Point","coordinates":[-12.8132,8.5552]},"properties":{"code":"OU_254963","name":"Magbeni MCHP","level":"4","parent":"pRHGAROvuyI","parentGraph":"ImspTQPwCqd/TEQlaapDQoK/pRHGAROvuyI","groups":["f25dqv3Y7Z0","EYbopBOJWsW","oRVt7g429ZO"]}},{"type":"Feature","id":"n9HIySyR00g","geometry":{"type":"Point","coordinates":[-12.4889,8.6935]},"properties":{"code":"OU_255054","name":"Magbil MCHP","level":"4","parent":"RWvG1aFrr0r","parentGraph":"ImspTQPwCqd/TEQlaapDQoK/RWvG1aFrr0r","groups":["f25dqv3Y7Z0","EYbopBOJWsW","oRVt7g429ZO"]}},{"type":"Feature","id":"XfVYz6l2rzg","geometry":{"type":"Point","coordinates":[-12.6722,9.0644]},"properties":{"code":"OU_255001","name":"Magbolonthor MCHP","level":"4","parent":"HWjrSuoNPte","parentGraph":"ImspTQPwCqd/TEQlaapDQoK/HWjrSuoNPte","groups":["f25dqv3Y7Z0","EYbopBOJWsW","oRVt7g429ZO"]}},{"type":"Feature","id":"mEUUK7MHLSF","geometry":{"type":"Point","coordinates":[-11.9388,8.7208]},"properties":{"code":"OU_268156","name":"Magburaka Govt. Hospital","level":"4","parent":"PQZJPIpTepd","parentGraph":"ImspTQPwCqd/eIQbndfxQMb/PQZJPIpTepd","groups":["f25dqv3Y7Z0","tDZVQ1WtwpA","oRVt7g429ZO"]}},{"type":"Feature","id":"CKJ9YS2AbWy","geometry":{"type":"Point","coordinates":[-12.1498,9.3911]},"properties":{"code":"OU_193241","name":"Maharibo MCHP","level":"4","parent":"WXnNDWTiE9r","parentGraph":"ImspTQPwCqd/fdc6uOvgoji/WXnNDWTiE9r","groups":["GGghZsfu7qV","EYbopBOJWsW","oRVt7g429ZO"]}},{"type":"Feature","id":"qEQFWnKh4gs","geometry":{"type":"Point","coordinates":[-12.224,8.9515]},"properties":{"code":"OU_193282","name":"Maharie MCHP","level":"4","parent":"BXJdOLvUrZB","parentGraph":"ImspTQPwCqd/fdc6uOvgoji/BXJdOLvUrZB","groups":["GGghZsfu7qV","EYbopBOJWsW","oRVt7g429ZO"]}},{"type":"Feature","id":"LnToY3ExKxL","geometry":{"type":"Point","coordinates":[-13.199,8.6037]},"properties":{"code":"OU_255018","name":"Mahera CHC","level":"4","parent":"vn9KJsLyP5f","parentGraph":"ImspTQPwCqd/TEQlaapDQoK/vn9KJsLyP5f","groups":["f25dqv3Y7Z0","oRVt7g429ZO","CXw2yu5fodb"]}},{"type":"Feature","id":"ShdRyzuLKA2","geometry":{"type":"Point","coordinates":[-11.1181,7.8484]},"properties":{"code":"OU_222735","name":"Majihun MCHP","level":"4","parent":"myQ4q1W6B4y","parentGraph":"ImspTQPwCqd/kJq2mPyFEHo/myQ4q1W6B4y","groups":["f25dqv3Y7Z0","EYbopBOJWsW","oRVt7g429ZO"]}},{"type":"Feature","id":"kSo9KSpHUPL","geometry":{"type":"Point","coordinates":[-12.9152,8.6074]},"properties":{"code":"OU_254952","name":"Makaba MCHP","level":"4","parent":"JdqfYTIFZXN","parentGraph":"ImspTQPwCqd/TEQlaapDQoK/JdqfYTIFZXN","groups":["f25dqv3Y7Z0","EYbopBOJWsW","oRVt7g429ZO"]}},{"type":"Feature","id":"en0j7qFnySQ","geometry":{"type":"Point","coordinates":[-12.6622,8.633]},"properties":{"code":"OU_255056","name":"Makabo MCHP","level":"4","parent":"RWvG1aFrr0r","parentGraph":"ImspTQPwCqd/TEQlaapDQoK/RWvG1aFrr0r","groups":["f25dqv3Y7Z0","EYbopBOJWsW","oRVt7g429ZO"]}},{"type":"Feature","id":"ewh5SKxcCAl","geometry":{"type":"Point","coordinates":[-12.2088,9.2598]},"properties":{"code":"OU_193219","name":"Makaiba MCHP","level":"4","parent":"e1eIKM1GIF3","parentGraph":"ImspTQPwCqd/fdc6uOvgoji/e1eIKM1GIF3","groups":["GGghZsfu7qV","EYbopBOJWsW","oRVt7g429ZO"]}},{"type":"Feature","id":"scc4QyxenJd","geometry":{"type":"Point","coordinates":[-11.6608,8.6302]},"properties":{"code":"OU_268215","name":"Makali CHC","level":"4","parent":"rXLor9Knq6l","parentGraph":"ImspTQPwCqd/eIQbndfxQMb/rXLor9Knq6l","groups":["f25dqv3Y7Z0","oRVt7g429ZO","CXw2yu5fodb"]}},{"type":"Feature","id":"CgunjDKbM45","geometry":{"type":"Point","coordinates":[-12.7186,8.4142]},"properties":{"code":"OU_254969","name":"Makalie MCHP","level":"4","parent":"pRHGAROvuyI","parentGraph":"ImspTQPwCqd/TEQlaapDQoK/pRHGAROvuyI","groups":["f25dqv3Y7Z0","EYbopBOJWsW","oRVt7g429ZO"]}},{"type":"Feature","id":"Dbn6fyCgMBV","geometry":{"type":"Point","coordinates":[-12.0557,8.8624]},"properties":{"code":"OU_193209","name":"Makama MCHP","level":"4","parent":"KKkLOTpMXGV","parentGraph":"ImspTQPwCqd/fdc6uOvgoji/KKkLOTpMXGV","groups":["GGghZsfu7qV","EYbopBOJWsW","oRVt7g429ZO"]}},{"type":"Feature","id":"XePkcmza9e8","geometry":{"type":"Point","coordinates":[-12.6539,8.4068]},"properties":{"code":"OU_254966","name":"Makarankay MCHP","level":"4","parent":"pRHGAROvuyI","parentGraph":"ImspTQPwCqd/TEQlaapDQoK/pRHGAROvuyI","groups":["f25dqv3Y7Z0","EYbopBOJWsW","oRVt7g429ZO"]}},{"type":"Feature","id":"wSHfjjFqUay","geometry":{"type":"Point","coordinates":[-12.1263,8.8648]},"properties":{"code":"OU_193253","name":"Makarie MCHP","level":"4","parent":"lY93YpCxJqf","parentGraph":"ImspTQPwCqd/fdc6uOvgoji/lY93YpCxJqf","groups":["GGghZsfu7qV","EYbopBOJWsW","oRVt7g429ZO"]}},{"type":"Feature","id":"NwX8noGxLoz","geometry":{"type":"Point","coordinates":[-12.102,8.4718]},"properties":{"code":"OU_268244","name":"Makelleh MCHP","level":"4","parent":"NNE0YMCDZkO","parentGraph":"ImspTQPwCqd/eIQbndfxQMb/NNE0YMCDZkO","groups":["f25dqv3Y7Z0","EYbopBOJWsW","oRVt7g429ZO"]}},{"type":"Feature","id":"dmdYffw2I0F","geometry":{"type":"Point","coordinates":[-11.9981,8.74]},"properties":{"code":"OU_193297","name":"Makeni-Lol MCHP","level":"4","parent":"L8iA6eLwKNb","parentGraph":"ImspTQPwCqd/fdc6uOvgoji/L8iA6eLwKNb","groups":["GGghZsfu7qV","EYbopBOJWsW","oRVt7g429ZO"]}},{"type":"Feature","id":"jbfISeV6Wdu","geometry":{"type":"Point","coordinates":[-12.5409,8.4255]},"properties":{"code":"OU_268245","name":"Makeni-Rokfullah MCHP","level":"4","parent":"NNE0YMCDZkO","parentGraph":"ImspTQPwCqd/eIQbndfxQMb/NNE0YMCDZkO","groups":["f25dqv3Y7Z0","EYbopBOJWsW","oRVt7g429ZO"]}},{"type":"Feature","id":"YldSFPxB6WH","geometry":{"type":"Point","coordinates":[-12.6678,8.4556]},"properties":{"code":"OU_254974","name":"Makiteh MCHP","level":"4","parent":"pRHGAROvuyI","parentGraph":"ImspTQPwCqd/TEQlaapDQoK/pRHGAROvuyI","groups":["f25dqv3Y7Z0","EYbopBOJWsW","oRVt7g429ZO"]}},{"type":"Feature","id":"KwSj4DlRWAm","geometry":{"type":"Point","coordinates":[-12.3177,8.6081]},"properties":{"code":"OU_268188","name":"Makoba Bana MCHP","level":"4","parent":"EVkm2xYcf6Z","parentGraph":"ImspTQPwCqd/eIQbndfxQMb/EVkm2xYcf6Z","groups":["f25dqv3Y7Z0","EYbopBOJWsW","oRVt7g429ZO"]}},{"type":"Feature","id":"si34vmovtgR","geometry":{"type":"Point","coordinates":[-11.9556,8.7597]},"properties":{"code":"OU_193296","name":"Makolor CHP","level":"4","parent":"L8iA6eLwKNb","parentGraph":"ImspTQPwCqd/fdc6uOvgoji/L8iA6eLwKNb","groups":["uYxK4wmcPqA","GGghZsfu7qV","oRVt7g429ZO"]}},{"type":"Feature","id":"CebtBqqp1fp","geometry":{"type":"Point","coordinates":[-11.5743,8.6373]},"properties":{"code":"OU_268214","name":"Makoni Line MCHP","level":"4","parent":"rXLor9Knq6l","parentGraph":"ImspTQPwCqd/eIQbndfxQMb/rXLor9Knq6l","groups":["f25dqv3Y7Z0","EYbopBOJWsW","oRVt7g429ZO"]}},{"type":"Feature","id":"G5NCnFJ3bbV","geometry":{"type":"Point","coordinates":[-11.8119,8.6483]},"properties":{"code":"OU_268219","name":"Makrugbeh MCHP","level":"4","parent":"xhyjU2SVewz","parentGraph":"ImspTQPwCqd/eIQbndfxQMb/xhyjU2SVewz","groups":["f25dqv3Y7Z0","EYbopBOJWsW","oRVt7g429ZO"]}},{"type":"Feature","id":"E7IDb3nNiW7","geometry":{"type":"Point","coordinates":[-12.0393,8.8057]},"properties":{"code":"OU_193211","name":"Makump Bana MCHP","level":"4","parent":"KKkLOTpMXGV","parentGraph":"ImspTQPwCqd/fdc6uOvgoji/KKkLOTpMXGV","groups":["GGghZsfu7qV","EYbopBOJWsW","oRVt7g429ZO"]}},{"type":"Feature","id":"LWlh25dfvEA","geometry":{"type":"Point","coordinates":[-12.5722,8.3622]},"properties":{"code":"OU_268230","name":"Makundu MCHP","level":"4","parent":"NNE0YMCDZkO","parentGraph":"ImspTQPwCqd/eIQbndfxQMb/NNE0YMCDZkO","groups":["f25dqv3Y7Z0","EYbopBOJWsW","oRVt7g429ZO"]}},{"type":"Feature","id":"FFU3PJ3pY7s","geometry":{"type":"Point","coordinates":[-12.7345,8.8474]},"properties":{"code":"OU_254947","name":"Malal MCHP","level":"4","parent":"JdqfYTIFZXN","parentGraph":"ImspTQPwCqd/TEQlaapDQoK/JdqfYTIFZXN","groups":["f25dqv3Y7Z0","EYbopBOJWsW","oRVt7g429ZO"]}},{"type":"Feature","id":"kBrq7i12aan","geometry":{"type":"Point","coordinates":[-13.2542,8.4506]},"properties":{"code":"OU_278327","name":"Malama MCHP","level":"4","parent":"C9uduqDZr9d","parentGraph":"ImspTQPwCqd/at6UHUQatSo/C9uduqDZr9d","groups":["f25dqv3Y7Z0","EYbopBOJWsW","oRVt7g429ZO"]}},{"type":"Feature","id":"ZoHdXy2ueVn","geometry":{"type":"Point","coordinates":[-13.0226,8.314]},"properties":{"code":"OU_278373","name":"Malambay CHP","level":"4","parent":"qtr8GGlm4gg","parentGraph":"ImspTQPwCqd/at6UHUQatSo/qtr8GGlm4gg","groups":["uYxK4wmcPqA","f25dqv3Y7Z0","oRVt7g429ZO"]}},{"type":"Feature","id":"dCvUVvKnhMe","geometry":{"type":"Point","coordinates":[-11.4081,7.0705]},"properties":{"code":"OU_260416","name":"Malema 1 MCHP","level":"4","parent":"d9iMR1MpuIO","parentGraph":"ImspTQPwCqd/bL4ooGhyHRQ/d9iMR1MpuIO","groups":["f25dqv3Y7Z0","EYbopBOJWsW","oRVt7g429ZO"]}},{"type":"Feature","id":"F0uVXCVvOPO","geometry":{"type":"Point","coordinates":[-11.9229,8.6687]},"properties":{"code":"OU_268157","name":"Malone MCHP","level":"4","parent":"PQZJPIpTepd","parentGraph":"ImspTQPwCqd/eIQbndfxQMb/PQZJPIpTepd","groups":["f25dqv3Y7Z0","EYbopBOJWsW","oRVt7g429ZO"]}},{"type":"Feature","id":"d9uZeZ5fMUo","geometry":{"type":"Point","coordinates":[-12.3347,9.0217]},